[{"name":"GENWI","category_code":"mobile","founded_year":2010,"total_money_raised":"$7.1M","description":"","address1":"4966 El Camino Real","address2":"Suite 200","zip_code":"94022","city":"Los Altos","state_code":"CA","country_code":"USA","latitude":33.8171,"longitude":-111.9035,"location":{"type":"Point","coordinates":[-111.9035,33.8171]},"Starbucks":null,"airports":{"type":"Point","coordinates":[-111.8982625,33.8182357]}},{"name":"Needium","category_code":"enterprise","founded_year":2010,"total_money_raised":"$1M","description":"Needium HQ","address1":"460 Ste-Catherine W. #402","address2":"","zip_code":"H3B1A7","city":"Montreal","state_code":null,"country_code":"CAN","latitude":45.5049305,"longitude":-73.5681635,"location":{"type":"Point","coordinates":[-73.5681635,45.5049305]},"Starbucks":null,"airports":{"type":"Point","coordinates":[-73.5559721,45.5009969]}},{"name":"Magento","category_code":"ecommerce","founded_year":2010,"total_money_raised":"$22.5M","description":null,"address1":"","address2":"","zip_code":"","city":"Los Angeles","state_code":"CA","country_code":"USA","latitude":34.052187,"longitude":-118.243425,"location":{"type":"Point","coordinates":[-118.243425,34.052187]},"Starbucks":null,"airports":{"type":"Point","coordinates":[-118.241895,34.0532122]}},{"name":"Pixsta","category_code":"web","founded_year":2010,"total_money_raised":"\u00a33M","description":null,"address1":"9 Thorpe Close","address2":"Portobello Rd","zip_code":"W10 5XL","city":"London","state_code":null,"country_code":"GBR","latitude":51.51819,"longitude":-0.208979,"location":{"type":"Point","coordinates":[-0.208979,51.51819]},"Starbucks":null,"airports":{"type":"Point","coordinates":[-0.205616,51.533047]}},{"name":"Titan Gaming","category_code":"games_video","founded_year":2010,"total_money_raised":"$1M","description":"Santa Monica Office","address1":"1351 4th Street, 4th floor","address2":"","zip_code":"90401","city":"Santa Monica","state_code":"CA","country_code":"USA","latitude":53.544711,"longitude":-113.515769,"location":{"type":"Point","coordinates":[-113.515769,53.544711]},"Starbucks":null,"airports":{"type":"Point","coordinates":[-113.4963478,53.557871]}},{"name":"Integrate","category_code":"software","founded_year":2010,"total_money_raised":"$34.8M","description":"Scottsdale HQ","address1":"4900 N. Scottsdale Road","address2":"Suite 4000","zip_code":"85251","city":"Scottsdale","state_code":"AZ","country_code":"USA","latitude":40.7481039,"longitude":-74.0353787,"location":{"type":"Point","coordinates":[-74.0353787,40.7481039]},"Starbucks":null,"airports":{"type":"Point","coordinates":[-74.0225668,40.7646065]}},{"name":"UsingMiles","category_code":"travel","founded_year":2010,"total_money_raised":"$3.27M","description":"Headquarters","address1":"1514 Blake St","address2":"","zip_code":"80202","city":"Denver","state_code":"CO","country_code":"USA","latitude":39.749671,"longitude":-104.9998449,"location":{"type":"Point","coordinates":[-104.9998449,39.749671]},"Starbucks":{"type":"Point","coordinates":[-105.0059041,39.7452649]},"airports":{"type":"Point","coordinates":[-104.990251,39.7392358]}},{"name":"Integrate","category_code":"software","founded_year":2010,"total_money_raised":"$34.8M","description":"Scottsdale HQ","address1":"4900 N. Scottsdale Road","address2":"Suite 4000","zip_code":"85251","city":"Scottsdale","state_code":"AZ","country_code":"USA","latitude":40.7481039,"longitude":-74.0353787,"location":{"type":"Point","coordinates":[-74.0353787,40.7481039]},"Starbucks":null,"airports":{"type":"Point","coordinates":[-74.0225668,40.7646065]}},{"name":"UsingMiles","category_code":"travel","founded_year":2010,"total_money_raised":"$3.27M","description":"Headquarters","address1":"1514 Blake St","address2":"","zip_code":"80202","city":"Denver","state_code":"CO","country_code":"USA","latitude":39.749671,"longitude":-104.9998449,"location":{"type":"Point","coordinates":[-104.9998449,39.749671]},"Starbucks":{"type":"Point","coordinates":[-105.0059041,39.7452649]},"airports":{"type":"Point","coordinates":[-104.990251,39.7392358]}},{"name":"Yipit","category_code":"web","founded_year":2010,"total_money_raised":"$7.55M","description":"HQ","address1":"3 W 18th","address2":"2nd Floor","zip_code":"10011","city":"New York","state_code":"NY","country_code":"USA","latitude":40.744618,"longitude":-73.987764,"location":{"type":"Point","coordinates":[-73.987764,40.744618]},"Starbucks":null,"airports":{"type":"Point","coordinates":[-73.9879451,40.7472082]}},{"name":"FeedHenry","category_code":"enterprise","founded_year":2010,"total_money_raised":"$9M","description":"US Offices","address1":"15 New England Executive Park","address2":"","zip_code":"01803","city":"Burlington","state_code":"MA","country_code":"USA","latitude":42.4851017,"longitude":-71.2089211,"location":{"type":"Point","coordinates":[-71.2089211,42.4851017]},"Starbucks":null,"airports":{"type":"Point","coordinates":[-71.235866,42.511665]}},{"name":"BASH Gaming","category_code":"games_video","founded_year":2010,"total_money_raised":"$1M","description":"US Office","address1":"","address2":"","zip_code":"94555","city":"Fremont","state_code":"CA","country_code":"USA","latitude":37.5561712,"longitude":-122.0780632,"location":{"type":"Point","coordinates":[-122.0780632,37.5561712]},"Starbucks":null,"airports":{"type":"Point","coordinates":[-122.0226992,37.582691]}},{"name":"BASH Gaming","category_code":"games_video","founded_year":2010,"total_money_raised":"$1M","description":"India Office","address1":"","address2":"","zip_code":"","city":"Bangalore","state_code":null,"country_code":"IND","latitude":12.971606,"longitude":77.594376,"location":{"type":"Point","coordinates":[77.594376,12.971606]},"Starbucks":{"type":"Point","coordinates":[77.5880369,12.9858773]},"airports":{"type":"Point","coordinates":[77.5949925,12.9723035]}},{"name":"AppNeta","category_code":"software","founded_year":2010,"total_money_raised":"$55.8M","description":"AppNeta","address1":"285 Summer Street","address2":"4th Floor","zip_code":"02127","city":"SOUTH BOSTON","state_code":"MA","country_code":"USA","latitude":42.318138,"longitude":-71.24756,"location":{"type":"Point","coordinates":[-71.24756,42.318138]},"Starbucks":null,"airports":{"type":"Point","coordinates":[-71.2244732,42.3137463]}},{"name":"MyLikes","category_code":"advertising","founded_year":2010,"total_money_raised":"$6.23M","description":"","address1":"1000 Brannan St, #502","address2":"","zip_code":"94103","city":"San Francisco","state_code":"CA","country_code":"USA","latitude":37.777995,"longitude":-122.408914,"location":{"type":"Point","coordinates":[-122.408914,37.777995]},"Starbucks":{"type":"Point","coordinates":[-122.4146525,37.8081104]},"airports":{"type":"Point","coordinates":[-122.4104463,37.7857289]}},{"name":"Fliptop","category_code":"enterprise","founded_year":2010,"total_money_raised":"$6.79M","description":"Headquarters","address1":"580 Howard Street","address2":"Suite 201","zip_code":"94105","city":"San Francisco","state_code":"CA","country_code":"USA","latitude":37.775206,"longitude":-122.419209,"location":{"type":"Point","coordinates":[-122.419209,37.775206]},"Starbucks":{"type":"Point","coordinates":[-122.4146525,37.8081104]},"airports":{"type":"Point","coordinates":[-122.4194155,37.7749295]}},{"name":"ticketea","category_code":"ecommerce","founded_year":2010,"total_money_raised":"$5.73M","description":"Office","address1":"Marques de Lema","address2":"7","zip_code":"28003","city":"Madrid","state_code":null,"country_code":"ESP","latitude":40.4455155,"longitude":-3.7061764,"location":{"type":"Point","coordinates":[-3.7061764,40.4455155]},"Starbucks":{"type":"Point","coordinates":[-3.6952059,40.4479271]},"airports":{"type":"Point","coordinates":[-3.6998496,40.4345051]}},{"name":"RazorGator","category_code":"ecommerce","founded_year":2011,"total_money_raised":"$58.8M","description":null,"address1":"11150 Santa Monica Blvd. Suite 500","address2":null,"zip_code":"90025","city":"Los Angeles","state_code":"CA","country_code":"USA","latitude":34.047312,"longitude":-118.445243,"location":{"type":"Point","coordinates":[-118.445243,34.047312]},"Starbucks":null,"airports":{"type":"Point","coordinates":[-118.4447799,34.0477908]}},{"name":"Social Gaming Network","category_code":"games_video","founded_year":2011,"total_money_raised":"$17.1M","description":"HQ Los Angeles","address1":"9570 W. Pico Blvd 3rd Floor","address2":"","zip_code":"90035","city":"Los Angeles","state_code":"CA","country_code":"USA","latitude":37.446823,"longitude":-122.161523,"location":{"type":"Point","coordinates":[-122.161523,37.446823]},"Starbucks":null,"airports":{"type":"Point","coordinates":[-122.1745936,37.4351865]}},{"name":"Social Gaming Network","category_code":"games_video","founded_year":2011,"total_money_raised":"$17.1M","description":"","address1":"9606 S. Santa Monica Blvd","address2":"2nd Floor","zip_code":"90210","city":"Beverly Hills","state_code":"CA","country_code":"USA","latitude":34.0698494,"longitude":-118.4054182,"location":{"type":"Point","coordinates":[-118.4054182,34.0698494]},"Starbucks":null,"airports":{"type":"Point","coordinates":[-118.4145683,34.0565697]}},{"name":"Moblica","category_code":"mobile","founded_year":2011,"total_money_raised":"$6M","description":"HQ","address1":"88 Menachem Begin Street","address2":"","zip_code":"67138","city":"Tel Aviv","state_code":null,"country_code":"ISR","latitude":32.0554,"longitude":34.7595,"location":{"type":"Point","coordinates":[34.7595,32.0554]},"Starbucks":{"type":"Point","coordinates":[34.7574896,32.0516983]},"airports":{"type":"Point","coordinates":[34.768245,32.0733038]}},{"name":"travelmob","category_code":"travel","founded_year":2011,"total_money_raised":"$1M","description":"HQ","address1":"71 Ayer Rajah Crescent","address2":"06-20","zip_code":"139951","city":"Singapore","state_code":null,"country_code":"SGP","latitude":21.303049,"longitude":-157.78907,"location":{"type":"Point","coordinates":[-157.78907,21.303049]},"Starbucks":null,"airports":{"type":"Point","coordinates":[-157.8514341,21.3039054]}},{"name":"travelmob","category_code":"travel","founded_year":2011,"total_money_raised":"$1M","description":"HQ","address1":"71 Ayer Rajah Crescent","address2":"06-20","zip_code":"139951","city":"Singapore","state_code":null,"country_code":"SGP","latitude":21.303049,"longitude":-157.78907,"location":{"type":"Point","coordinates":[-157.78907,21.303049]},"Starbucks":null,"airports":{"type":"Point","coordinates":[-157.8514341,21.3039054]}},{"name":"VisualOn","category_code":"software","founded_year":2011,"total_money_raised":"$3.1M","description":"Headquarters","address1":"4675 Stevens Creek Blvd","address2":"# 200","zip_code":"95051","city":"Santa Clara","state_code":"CA","country_code":"USA","latitude":37.270518,"longitude":-121.955879,"location":{"type":"Point","coordinates":[-121.955879,37.270518]},"Starbucks":{"type":"Point","coordinates":[-122.0425329,36.9637444]},"airports":{"type":"Point","coordinates":[-121.9474768,37.2532466]}},{"name":"PeekYou","category_code":"search","founded_year":2012,"total_money_raised":"$1.83M","description":null,"address1":null,"address2":null,"zip_code":null,"city":"New York","state_code":"NY","country_code":"USA","latitude":40.757929,"longitude":-73.985506,"location":{"type":"Point","coordinates":[-73.985506,40.757929]},"Starbucks":{"type":"Point","coordinates":[-73.9863503,40.7596825]},"airports":{"type":"Point","coordinates":[-73.9943409,40.7536613]}},{"name":"Widgetbox","category_code":"other","founded_year":2012,"total_money_raised":"$14.5M","description":null,"address1":null,"address2":null,"zip_code":"94111","city":"San Francisco","state_code":"CA","country_code":"USA","latitude":37.798853,"longitude":-122.398599,"location":{"type":"Point","coordinates":[-122.398599,37.798853]},"Starbucks":{"type":"Point","coordinates":[-122.4146525,37.8081104]},"airports":{"type":"Point","coordinates":[-122.4041815,37.7904839]}},{"name":"Skydeck","category_code":"mobile","founded_year":2012,"total_money_raised":"$4M","description":"","address1":"330 Waverley St.","address2":"Suite 3","zip_code":"94301","city":"Palo Alto","state_code":"CA","country_code":"USA","latitude":37.5645375,"longitude":-122.3254705,"location":{"type":"Point","coordinates":[-122.3254705,37.5645375]},"Starbucks":null,"airports":{"type":"Point","coordinates":[-122.346102,37.5865632]}},{"name":"Fixya","category_code":"web","founded_year":2013,"total_money_raised":"$8M","description":"","address1":"One Franklin Parkway","address2":"Building 910, Suite 110","zip_code":"94401","city":"San Mateo","state_code":"CA","country_code":"USA","latitude":37.566879,"longitude":-122.323895,"location":{"type":"Point","coordinates":[-122.323895,37.566879]},"Starbucks":null,"airports":{"type":"Point","coordinates":[-122.346102,37.5865632]}},{"name":"VistaGen Therapeutics","category_code":"biotech","founded_year":2013,"total_money_raised":"$41.3M","description":"","address1":"384 Oyster Point Blvd., Suite #8","address2":"","zip_code":"94080","city":"South San Francisco","state_code":"CA","country_code":"USA","latitude":37.6656476,"longitude":-122.3843489,"location":{"type":"Point","coordinates":[-122.3843489,37.6656476]},"Starbucks":null,"airports":{"type":"Point","coordinates":[-122.3884269,37.6388408]}},{"name":"SiSense","category_code":"analytics","founded_year":2010,"total_money_raised":"$10M","description":"World Headquarters","address1":"36 Hanamal st.","address2":"","zip_code":"","city":"Tel Aviv","state_code":null,"country_code":"ISR","latitude":null,"longitude":null,"location":{"type":"Point","coordinates":[34.79268,32.07661]},"Starbucks":{"type":"Point","coordinates":[34.7698466,32.0683685]},"airports":{"type":"Point","coordinates":[34.7897379,32.0796218]}},{"name":"SiSense","category_code":"analytics","founded_year":2010,"total_money_raised":"$10M","description":"SiSense U.S","address1":"14 Wall Street","address2":"","zip_code":"","city":"NYC","state_code":"NY","country_code":"USA","latitude":null,"longitude":null,"location":{"type":"Point","coordinates":[-74.06464,40.18184]},"Starbucks":null,"airports":{"type":"Point","coordinates":[-74.041212,40.2091347]}},{"name":"Integrate","category_code":"software","founded_year":2010,"total_money_raised":"$34.8M","description":"Colorado Office","address1":"1821 Blake St.","address2":"STe 2A","zip_code":"80202","city":"Denver","state_code":"CO","country_code":"USA","latitude":null,"longitude":null,"location":{"type":"Point","coordinates":[-104.99648,39.75284]},"Starbucks":{"type":"Point","coordinates":[-105.0059041,39.7452649]},"airports":{"type":"Point","coordinates":[-104.9805363,39.7472088]}},{"name":"Integrate","category_code":"software","founded_year":2010,"total_money_raised":"$34.8M","description":"San Francisco Office","address1":"23 Geary St","address2":"10th Floor","zip_code":"94104","city":"San Francisco","state_code":"CA","country_code":"USA","latitude":null,"longitude":null,"location":{"type":"Point","coordinates":[-122.40412,37.78788]},"Starbucks":null,"airports":{"type":"Point","coordinates":[-122.4041815,37.7904839]}},{"name":"Integrate","category_code":"software","founded_year":2010,"total_money_raised":"$34.8M","description":"Boston Office","address1":"239 South Street","address2":"4th Floor","zip_code":"01748","city":"Hopkinton","state_code":"MA","country_code":"USA","latitude":null,"longitude":null,"location":{"type":"Point","coordinates":[-71.53179,42.22295]},"Starbucks":null,"airports":{"type":"Point","coordinates":[-71.5423732,42.2794045]}},{"name":"Integrate","category_code":"software","founded_year":2010,"total_money_raised":"$34.8M","description":"Colorado Office","address1":"1821 Blake St.","address2":"STe 2A","zip_code":"80202","city":"Denver","state_code":"CO","country_code":"USA","latitude":null,"longitude":null,"location":{"type":"Point","coordinates":[-104.99648,39.75284]},"Starbucks":{"type":"Point","coordinates":[-105.0059041,39.7452649]},"airports":{"type":"Point","coordinates":[-104.9805363,39.7472088]}},{"name":"Integrate","category_code":"software","founded_year":2010,"total_money_raised":"$34.8M","description":"San Francisco Office","address1":"23 Geary St","address2":"10th Floor","zip_code":"94104","city":"San Francisco","state_code":"CA","country_code":"USA","latitude":null,"longitude":null,"location":{"type":"Point","coordinates":[-122.40412,37.78788]},"Starbucks":null,"airports":{"type":"Point","coordinates":[-122.4041815,37.7904839]}},{"name":"Integrate","category_code":"software","founded_year":2010,"total_money_raised":"$34.8M","description":"Boston Office","address1":"239 South Street","address2":"4th Floor","zip_code":"01748","city":"Hopkinton","state_code":"MA","country_code":"USA","latitude":null,"longitude":null,"location":{"type":"Point","coordinates":[-71.53179,42.22295]},"Starbucks":null,"airports":{"type":"Point","coordinates":[-71.5423732,42.2794045]}},{"name":"Webtab","category_code":"mobile","founded_year":2010,"total_money_raised":"$2M","description":"Corporate Headquarters","address1":"847 Sansome Street","address2":"Suite L","zip_code":"94111","city":"San Francisco","state_code":"CA","country_code":"USA","latitude":null,"longitude":null,"location":{"type":"Point","coordinates":[-122.41026,37.6167]},"Starbucks":null,"airports":{"type":"Point","coordinates":[-122.3922954,37.6160909]}},{"name":"Diffbot","category_code":"analytics","founded_year":2010,"total_money_raised":"$2M","description":"","address1":"395 Page Mill Rd","address2":"","zip_code":"94306","city":"Palo Alto","state_code":"CA","country_code":"USA","latitude":null,"longitude":null,"location":{"type":"Point","coordinates":[-122.13972,37.42482]},"Starbucks":null,"airports":{"type":"Point","coordinates":[-122.1745936,37.4351865]}},{"name":"FeedHenry","category_code":"enterprise","founded_year":2010,"total_money_raised":"$9M","description":"R&D Offices","address1":"ArcLabs Research & Innovation Building","address2":"WIT West Campus, Carriganore","zip_code":"Waterford","city":"Waterford","state_code":null,"country_code":"IRL","latitude":null,"longitude":null,"location":{"type":"Point","coordinates":[-83.38322,42.66078]},"Starbucks":null,"airports":{"type":"Point","coordinates":[-83.4066463,42.6627577]}},{"name":"Avenir Medical","category_code":"biotech","founded_year":2010,"total_money_raised":"$4.03M","description":"","address1":"295 Hagey Blvd","address2":"1st Floor, West Entrance","zip_code":"N2L 6R5","city":"Waterloo, ON","state_code":null,"country_code":"CAN","latitude":null,"longitude":null,"location":{"type":"Point","coordinates":[-92.34007,42.48597]},"Starbucks":null,"airports":{"type":"Point","coordinates":[-92.3470439,42.4611511]}},{"name":"Mashape","category_code":"enterprise","founded_year":2010,"total_money_raised":"$1.6M","description":"Mashape Lair","address1":"433 Bryant St.","address2":"","zip_code":"94107","city":"San Francisco","state_code":"CA","country_code":"USA","latitude":null,"longitude":null,"location":{"type":"Point","coordinates":[-122.39419,37.7823]},"Starbucks":{"type":"Point","coordinates":[-122.4146525,37.8081104]},"airports":{"type":"Point","coordinates":[-122.4041815,37.7904839]}},{"name":"CircleUp","category_code":"finance","founded_year":2011,"total_money_raised":"$9M","description":"","address1":"","address2":"","zip_code":"","city":"San Francisco","state_code":"CA","country_code":"USA","latitude":null,"longitude":null,"location":{"type":"Point","coordinates":[-15.41914,27.99493]},"Starbucks":{"type":"Point","coordinates":[-15.4315196,28.134542]},"airports":{"type":"Point","coordinates":[-15.3877597,27.9424807]}},{"name":"Emotive Communications","category_code":"enterprise","founded_year":2011,"total_money_raised":"$14M","description":"HQ","address1":"345 California Street","address2":"10th Floor","zip_code":"94104","city":"San Francisco","state_code":"CA","country_code":"USA","latitude":null,"longitude":null,"location":{"type":"Point","coordinates":[-122.40353,37.79275]},"Starbucks":{"type":"Point","coordinates":[-122.4146525,37.8081104]},"airports":{"type":"Point","coordinates":[-122.4041815,37.7904839]}},{"name":"Taggify","category_code":"advertising","founded_year":2011,"total_money_raised":"$1M","description":"Headquarters","address1":"Concepcion Arenal 3425","address2":"3rd floor Office 44","zip_code":"1414","city":"Buenos Aires","state_code":null,"country_code":"ARG","latitude":null,"longitude":null,"location":{"type":"Point","coordinates":[-58.4479,-34.58783]},"Starbucks":{"type":"Point","coordinates":[-58.4061742,-34.5778259]},"airports":{"type":"Point","coordinates":[-58.438097,-34.607526]}},{"name":"Treehouse","category_code":"education","founded_year":2011,"total_money_raised":"$19.4M","description":"","address1":"","address2":"","zip_code":"","city":"Orlando","state_code":"FL","country_code":"USA","latitude":null,"longitude":null,"location":{"type":"Point","coordinates":[-81.35939,28.5175]},"Starbucks":null,"airports":{"type":"Point","coordinates":[-81.3771895,28.5251546]}},{"name":"Treehouse","category_code":"education","founded_year":2011,"total_money_raised":"$19.4M","description":"","address1":"","address2":"","zip_code":"","city":"Portland","state_code":"OR","country_code":"USA","latitude":null,"longitude":null,"location":{"type":"Point","coordinates":[-87.68112,41.65975]},"Starbucks":null,"airports":{"type":"Point","coordinates":[-87.6456481,41.63129]}},{"name":"Pinger","category_code":"messaging","founded_year":2012,"total_money_raised":"$18.5M","description":"","address1":"97 S. 2nd Street","address2":"Suite 210","zip_code":"95113","city":"San Jose","state_code":"CA","country_code":"USA","latitude":null,"longitude":null,"location":{"type":"Point","coordinates":[-89.60421,40.3056]},"Starbucks":null,"airports":null},{"name":"Pict","category_code":"ecommerce","founded_year":2012,"total_money_raised":"$1.4M","description":"","address1":"","address2":"","zip_code":"94105","city":"San Francisco","state_code":"CA","country_code":"USA","latitude":null,"longitude":null,"location":{"type":"Point","coordinates":[-15.41914,27.99493]},"Starbucks":{"type":"Point","coordinates":[-15.4315196,28.134542]},"airports":{"type":"Point","coordinates":[-15.3877597,27.9424807]}}]