[{"name":"Wetpaint","lat":47.603122,"lng":-122.333253,"oficina_principal":{"type":"Point","coordinates":[-122.333253,47.603122]},"totalOffices":2.0},{"name":"AdventNet","lat":37.692934,"lng":-121.904945,"oficina_principal":{"type":"Point","coordinates":[-121.904945,37.692934]},"totalOffices":1.0},{"name":"Zoho","lat":37.692934,"lng":-121.904945,"oficina_principal":{"type":"Point","coordinates":[-121.904945,37.692934]},"totalOffices":1.0},{"name":"Digg","lat":37.764726,"lng":-122.394523,"oficina_principal":{"type":"Point","coordinates":[-122.394523,37.764726]},"totalOffices":1.0},{"name":"Facebook","lat":37.41605,"lng":-122.151801,"oficina_principal":{"type":"Point","coordinates":[-122.151801,37.41605]},"totalOffices":3.0},{"name":"Omnidrive","lat":null,"lng":null,"oficina_principal":null,"totalOffices":1.0},{"name":"Postini","lat":37.506885,"lng":-122.247573,"oficina_principal":{"type":"Point","coordinates":[-122.247573,37.506885]},"totalOffices":1.0},{"name":"Geni","lat":34.090368,"lng":-118.393064,"oficina_principal":{"type":"Point","coordinates":[-118.393064,34.090368]},"totalOffices":1.0},{"name":"Flektor","lat":34.025958,"lng":-118.379768,"oficina_principal":{"type":"Point","coordinates":[-118.379768,34.025958]},"totalOffices":1.0},{"name":"Fox Interactive Media","lat":34.076179,"lng":-118.39417,"oficina_principal":{"type":"Point","coordinates":[-118.39417,34.076179]},"totalOffices":1.0},{"name":"Twitter","lat":37.7768052,"lng":-122.4169244,"oficina_principal":{"type":"Point","coordinates":[-122.4169244,37.7768052]},"totalOffices":1.0},{"name":"StumbleUpon","lat":37.775196,"lng":-122.419204,"oficina_principal":{"type":"Point","coordinates":[-122.419204,37.775196]},"totalOffices":2.0},{"name":"Gizmoz","lat":37.48413,"lng":-122.169472,"oficina_principal":{"type":"Point","coordinates":[-122.169472,37.48413]},"totalOffices":1.0},{"name":"Scribd","lat":37.789634,"lng":-122.404052,"oficina_principal":{"type":"Point","coordinates":[-122.404052,37.789634]},"totalOffices":1.0},{"name":"Slacker","lat":33.022176,"lng":-117.081406,"oficina_principal":{"type":"Point","coordinates":[-117.081406,33.022176]},"totalOffices":1.0},{"name":"Lala","lat":37.451151,"lng":-122.154369,"oficina_principal":{"type":"Point","coordinates":[-122.154369,37.451151]},"totalOffices":1.0},{"name":"Helio","lat":34.057498,"lng":-118.446596,"oficina_principal":{"type":"Point","coordinates":[-118.446596,34.057498]},"totalOffices":1.0},{"name":"eBay","lat":37.295005,"lng":-121.930035,"oficina_principal":{"type":"Point","coordinates":[-121.930035,37.295005]},"totalOffices":1.0},{"name":"MeetMoi","lat":40.757929,"lng":-73.985506,"oficina_principal":{"type":"Point","coordinates":[-73.985506,40.757929]},"totalOffices":1.0},{"name":"Joost","lat":40.7464969,"lng":-74.0094471,"oficina_principal":{"type":"Point","coordinates":[-74.0094471,40.7464969]},"totalOffices":1.0},{"name":"CBS","lat":37.269175,"lng":-119.306607,"oficina_principal":{"type":"Point","coordinates":[-119.306607,37.269175]},"totalOffices":1.0},{"name":"Viacom","lat":40.757725,"lng":-73.986011,"oficina_principal":{"type":"Point","coordinates":[-73.986011,40.757725]},"totalOffices":1.0},{"name":"Babelgum","lat":53.344104,"lng":-6.267494,"oficina_principal":{"type":"Point","coordinates":[-6.267494,53.344104]},"totalOffices":1.0},{"name":"Plaxo","lat":37.387845,"lng":-122.055197,"oficina_principal":{"type":"Point","coordinates":[-122.055197,37.387845]},"totalOffices":1.0},{"name":"Cisco","lat":37.408802,"lng":-121.95377,"oficina_principal":{"type":"Point","coordinates":[-121.95377,37.408802]},"totalOffices":1.0},{"name":"Yahoo!","lat":37.418531,"lng":-122.025485,"oficina_principal":{"type":"Point","coordinates":[-122.025485,37.418531]},"totalOffices":1.0},{"name":"Powerset","lat":37.778613,"lng":-122.395289,"oficina_principal":{"type":"Point","coordinates":[-122.395289,37.778613]},"totalOffices":1.0},{"name":"Technorati","lat":37.779558,"lng":-122.393041,"oficina_principal":{"type":"Point","coordinates":[-122.393041,37.779558]},"totalOffices":1.0},{"name":"SpinVox","lat":null,"lng":null,"oficina_principal":null,"totalOffices":1.0},{"name":"AddThis","lat":38.926172,"lng":-77.245195,"oficina_principal":{"type":"Point","coordinates":[-77.245195,38.926172]},"totalOffices":6.0},{"name":"OpenX","lat":34.1494713,"lng":-118.1327468,"oficina_principal":{"type":"Point","coordinates":[-118.1327468,34.1494713]},"totalOffices":5.0},{"name":"Mahalo","lat":34.017606,"lng":-118.487267,"oficina_principal":{"type":"Point","coordinates":[-118.487267,34.017606]},"totalOffices":1.0},{"name":"Sparter","lat":37.09024,"lng":-95.712891,"oficina_principal":{"type":"Point","coordinates":[-95.712891,37.09024]},"totalOffices":1.0},{"name":"Kyte","lat":37.788482,"lng":-122.409173,"oficina_principal":{"type":"Point","coordinates":[-122.409173,37.788482]},"totalOffices":1.0},{"name":"Veoh","lat":32.902266,"lng":-117.20834,"oficina_principal":{"type":"Point","coordinates":[-117.20834,32.902266]},"totalOffices":1.0},{"name":"Gannett","lat":38.929289,"lng":-77.216585,"oficina_principal":{"type":"Point","coordinates":[-77.216585,38.929289]},"totalOffices":1.0},{"name":"Thoof","lat":30.268735,"lng":-97.745209,"oficina_principal":{"type":"Point","coordinates":[-97.745209,30.268735]},"totalOffices":1.0},{"name":"Jingle Networks","lat":37.480999,"lng":-122.173887,"oficina_principal":{"type":"Point","coordinates":[-122.173887,37.480999]},"totalOffices":1.0},{"name":"Info","lat":41.885619,"lng":-87.622309,"oficina_principal":{"type":"Point","coordinates":[-87.622309,41.885619]},"totalOffices":1.0},{"name":"JotSpot","lat":37.437328,"lng":-122.159928,"oficina_principal":{"type":"Point","coordinates":[-122.159928,37.437328]},"totalOffices":1.0},{"name":"Meetup","lat":40.72604,"lng":-73.995722,"oficina_principal":{"type":"Point","coordinates":[-73.995722,40.72604]},"totalOffices":1.0},{"name":"Mercora","lat":37.384239,"lng":-122.012475,"oficina_principal":{"type":"Point","coordinates":[-122.012475,37.384239]},"totalOffices":1.0},{"name":"NetRatings","lat":37.09024,"lng":-95.712891,"oficina_principal":{"type":"Point","coordinates":[-95.712891,37.09024]},"totalOffices":1.0},{"name":"LifeLock","lat":33.429859,"lng":-111.938739,"oficina_principal":{"type":"Point","coordinates":[-111.938739,33.429859]},"totalOffices":1.0},{"name":"Wesabe","lat":37.793148,"lng":-122.402567,"oficina_principal":{"type":"Point","coordinates":[-122.402567,37.793148]},"totalOffices":1.0},{"name":"Jangl SMS","lat":37.697805,"lng":-121.907768,"oficina_principal":{"type":"Point","coordinates":[-121.907768,37.697805]},"totalOffices":1.0},{"name":"SmugMug","lat":37.390056,"lng":-122.067692,"oficina_principal":{"type":"Point","coordinates":[-122.067692,37.390056]},"totalOffices":1.0},{"name":"Prosper","lat":37.78976,"lng":-122.402524,"oficina_principal":{"type":"Point","coordinates":[-122.402524,37.78976]},"totalOffices":1.0},{"name":"Google","lat":37.421972,"lng":-122.084143,"oficina_principal":{"type":"Point","coordinates":[-122.084143,37.421972]},"totalOffices":67.0},{"name":"Jajah","lat":37.4233896,"lng":-122.0899512,"oficina_principal":{"type":"Point","coordinates":[-122.0899512,37.4233896]},"totalOffices":1.0},{"name":"Skype","lat":51.518132,"lng":-0.131916,"oficina_principal":{"type":"Point","coordinates":[-0.131916,51.518132]},"totalOffices":3.0},{"name":"YouTube","lat":37.627971,"lng":-122.426804,"oficina_principal":{"type":"Point","coordinates":[-122.426804,37.627971]},"totalOffices":1.0},{"name":"Stickam","lat":34.051409,"lng":-118.254558,"oficina_principal":{"type":"Point","coordinates":[-118.254558,34.051409]},"totalOffices":1.0},{"name":"blogTV","lat":31.046051,"lng":34.851612,"oficina_principal":{"type":"Point","coordinates":[34.851612,31.046051]},"totalOffices":1.0},{"name":"Livestream","lat":40.726155,"lng":-73.995625,"oficina_principal":{"type":"Point","coordinates":[-73.995625,40.726155]},"totalOffices":1.0},{"name":"Ustream","lat":37.392936,"lng":-122.07948,"oficina_principal":{"type":"Point","coordinates":[-122.07948,37.392936]},"totalOffices":3.0},{"name":"AdaptiveBlue","lat":40.801358,"lng":-74.3372,"oficina_principal":{"type":"Point","coordinates":[-74.3372,40.801358]},"totalOffices":1.0},{"name":"Pando Networks","lat":40.722655,"lng":-73.99873,"oficina_principal":{"type":"Point","coordinates":[-73.99873,40.722655]},"totalOffices":1.0},{"name":"Intel","lat":37.384949,"lng":-121.96761,"oficina_principal":{"type":"Point","coordinates":[-121.96761,37.384949]},"totalOffices":1.0},{"name":"GrandCentral","lat":37.465645,"lng":-121.932202,"oficina_principal":{"type":"Point","coordinates":[-121.932202,37.465645]},"totalOffices":1.0},{"name":"Ikan","lat":41.049051,"lng":-73.563878,"oficina_principal":{"type":"Point","coordinates":[-73.563878,41.049051]},"totalOffices":1.0},{"name":"delicious","lat":null,"lng":null,"oficina_principal":null,"totalOffices":1.0},{"name":"Topix","lat":37.44296,"lng":-122.151198,"oficina_principal":{"type":"Point","coordinates":[-122.151198,37.44296]},"totalOffices":1.0},{"name":"Jobster","lat":47.617682,"lng":-122.357242,"oficina_principal":{"type":"Point","coordinates":[-122.357242,47.617682]},"totalOffices":1.0},{"name":"Pownce","lat":37.762541,"lng":-122.397224,"oficina_principal":{"type":"Point","coordinates":[-122.397224,37.762541]},"totalOffices":1.0},{"name":"Revision3","lat":37.757758,"lng":-122.388243,"oficina_principal":{"type":"Point","coordinates":[-122.388243,37.757758]},"totalOffices":1.0},{"name":"AllPeers","lat":51.752276,"lng":-1.255824,"oficina_principal":{"type":"Point","coordinates":[-1.255824,51.752276]},"totalOffices":1.0},{"name":"CriticalMetrics","lat":37.269175,"lng":-119.306607,"oficina_principal":{"type":"Point","coordinates":[-119.306607,37.269175]},"totalOffices":1.0},{"name":"ZenZui","lat":47.620716,"lng":-122.347533,"oficina_principal":{"type":"Point","coordinates":[-122.347533,47.620716]},"totalOffices":1.0},{"name":"Spock","lat":37.488336,"lng":-122.217964,"oficina_principal":{"type":"Point","coordinates":[-122.217964,37.488336]},"totalOffices":1.0},{"name":"Wize","lat":37.559287,"lng":-122.302262,"oficina_principal":{"type":"Point","coordinates":[-122.302262,37.559287]},"totalOffices":1.0},{"name":"SodaHead","lat":37.269175,"lng":-119.306607,"oficina_principal":{"type":"Point","coordinates":[-119.306607,37.269175]},"totalOffices":1.0},{"name":"CastTV","lat":37.780716,"lng":-122.393913,"oficina_principal":{"type":"Point","coordinates":[-122.393913,37.780716]},"totalOffices":1.0},{"name":"iSkoot","lat":42.375392,"lng":-71.118487,"oficina_principal":{"type":"Point","coordinates":[-71.118487,42.375392]},"totalOffices":2.0},{"name":"EQO","lat":49.263588,"lng":-123.138565,"oficina_principal":{"type":"Point","coordinates":[-123.138565,49.263588]},"totalOffices":1.0},{"name":"AllofMP3","lat":55.755786,"lng":37.617633,"oficina_principal":{"type":"Point","coordinates":[37.617633,55.755786]},"totalOffices":1.0},{"name":"There","lat":37.553385,"lng":-122.302149,"oficina_principal":{"type":"Point","coordinates":[-122.302149,37.553385]},"totalOffices":1.0},{"name":"SellABand","lat":51.808933,"lng":6.553452,"oficina_principal":{"type":"Point","coordinates":[6.553452,51.808933]},"totalOffices":1.0},{"name":"Funny Or Die","lat":37.421621,"lng":-122.137444,"oficina_principal":{"type":"Point","coordinates":[-122.137444,37.421621]},"totalOffices":1.0},{"name":"Steorn","lat":53.354997,"lng":-6.229255,"oficina_principal":{"type":"Point","coordinates":[-6.229255,53.354997]},"totalOffices":1.0},{"name":"iContact","lat":null,"lng":null,"oficina_principal":null,"totalOffices":1.0},{"name":"MeeVee","lat":37.590339,"lng":-122.341715,"oficina_principal":{"type":"Point","coordinates":[-122.341715,37.590339]},"totalOffices":1.0},{"name":"blinkx","lat":37.793819,"lng":-122.395089,"oficina_principal":{"type":"Point","coordinates":[-122.395089,37.793819]},"totalOffices":1.0},{"name":"Mashery","lat":37.7870842,"lng":-122.4038047,"oficina_principal":{"type":"Point","coordinates":[-122.4038047,37.7870842]},"totalOffices":3.0},{"name":"ClipBlast!","lat":34.155211,"lng":-118.756618,"oficina_principal":{"type":"Point","coordinates":[-118.756618,34.155211]},"totalOffices":1.0},{"name":"Zlio","lat":48.862825,"lng":2.381836,"oficina_principal":{"type":"Point","coordinates":[2.381836,48.862825]},"totalOffices":1.0},{"name":"Yelp","lat":37.786183,"lng":-122.402195,"oficina_principal":{"type":"Point","coordinates":[-122.402195,37.786183]},"totalOffices":1.0},{"name":"Jaiku","lat":60.16377,"lng":24.93105,"oficina_principal":{"type":"Point","coordinates":[24.93105,60.16377]},"totalOffices":1.0},{"name":"Tun3r","lat":null,"lng":null,"oficina_principal":null,"totalOffices":1.0},{"name":"Spotplex","lat":37.380101,"lng":-121.940749,"oficina_principal":{"type":"Point","coordinates":[-121.940749,37.380101]},"totalOffices":1.0},{"name":"Yapta","lat":47.599925,"lng":-122.334264,"oficina_principal":{"type":"Point","coordinates":[-122.334264,47.599925]},"totalOffices":2.0},{"name":"TripUp","lat":34.052187,"lng":-118.243425,"oficina_principal":{"type":"Point","coordinates":[-118.243425,34.052187]},"totalOffices":1.0},{"name":"Wakoopa","lat":52.3745228,"lng":4.8948623,"oficina_principal":{"type":"Point","coordinates":[4.8948623,52.3745228]},"totalOffices":1.0},{"name":"Fleck","lat":52.375595,"lng":4.908556,"oficina_principal":{"type":"Point","coordinates":[4.908556,52.375595]},"totalOffices":1.0},{"name":"Coghead","lat":37.476479,"lng":-122.221717,"oficina_principal":{"type":"Point","coordinates":[-122.221717,37.476479]},"totalOffices":1.0},{"name":"Zamzar","lat":50.9444598,"lng":-1.3610845,"oficina_principal":{"type":"Point","coordinates":[-1.3610845,50.9444598]},"totalOffices":1.0},{"name":"Zooomr","lat":37.775196,"lng":-122.419204,"oficina_principal":{"type":"Point","coordinates":[-122.419204,37.775196]},"totalOffices":1.0},{"name":"SideStep","lat":37.374998,"lng":-121.977853,"oficina_principal":{"type":"Point","coordinates":[-121.977853,37.374998]},"totalOffices":1.0},{"name":"coRank","lat":37.36965,"lng":-122.02421,"oficina_principal":{"type":"Point","coordinates":[-122.02421,37.36965]},"totalOffices":1.0},{"name":"Farecast","lat":47.620982,"lng":-122.359397,"oficina_principal":{"type":"Point","coordinates":[-122.359397,47.620982]},"totalOffices":1.0},{"name":"Dailymotion","lat":null,"lng":null,"oficina_principal":null,"totalOffices":4.0},{"name":"KickApps","lat":40.7516611,"lng":-73.9843328,"oficina_principal":{"type":"Point","coordinates":[-73.9843328,40.7516611]},"totalOffices":4.0},{"name":"RockYou","lat":37.484619,"lng":-122.206893,"oficina_principal":{"type":"Point","coordinates":[-122.206893,37.484619]},"totalOffices":1.0},{"name":"ConVerdge","lat":34.0126379,"lng":-118.495155,"oficina_principal":{"type":"Point","coordinates":[-118.495155,34.0126379]},"totalOffices":1.0},{"name":"Pageflakes","lat":37.758113,"lng":-122.414689,"oficina_principal":{"type":"Point","coordinates":[-122.414689,37.758113]},"totalOffices":1.0},{"name":"Instructables","lat":37.7791761,"lng":-122.4058887,"oficina_principal":{"type":"Point","coordinates":[-122.4058887,37.7791761]},"totalOffices":1.0},{"name":"Netvibes","lat":48.870806,"lng":2.34668,"oficina_principal":{"type":"Point","coordinates":[2.34668,48.870806]},"totalOffices":2.0},{"name":"Swivel","lat":37.789268,"lng":-122.395184,"oficina_principal":{"type":"Point","coordinates":[-122.395184,37.789268]},"totalOffices":1.0},{"name":"Slide","lat":37.781427,"lng":-122.392144,"oficina_principal":{"type":"Point","coordinates":[-122.392144,37.781427]},"totalOffices":1.0},{"name":"Bebo","lat":37.782103,"lng":-122.401116,"oficina_principal":{"type":"Point","coordinates":[-122.401116,37.782103]},"totalOffices":1.0},{"name":"Flickr","lat":37.418531,"lng":-122.025485,"oficina_principal":{"type":"Point","coordinates":[-122.025485,37.418531]},"totalOffices":1.0},{"name":"BabyCenter","lat":37.778076,"lng":-122.397977,"oficina_principal":{"type":"Point","coordinates":[-122.397977,37.778076]},"totalOffices":1.0},{"name":"PlaceBlogger","lat":37.09024,"lng":-95.712891,"oficina_principal":{"type":"Point","coordinates":[-95.712891,37.09024]},"totalOffices":1.0},{"name":"WeFi","lat":37.09024,"lng":-95.712891,"oficina_principal":{"type":"Point","coordinates":[-95.712891,37.09024]},"totalOffices":1.0},{"name":"TripHub","lat":47.614653,"lng":-122.338793,"oficina_principal":{"type":"Point","coordinates":[-122.338793,47.614653]},"totalOffices":1.0},{"name":"CrowdVine","lat":37.90077,"lng":-122.511687,"oficina_principal":{"type":"Point","coordinates":[-122.511687,37.90077]},"totalOffices":1.0},{"name":"FeedBurner","lat":41.889474,"lng":-87.628912,"oficina_principal":{"type":"Point","coordinates":[-87.628912,41.889474]},"totalOffices":1.0},{"name":"TheFind","lat":37.391502,"lng":-122.073463,"oficina_principal":{"type":"Point","coordinates":[-122.073463,37.391502]},"totalOffices":1.0},{"name":"TVtrip","lat":48.856667,"lng":2.350987,"oficina_principal":{"type":"Point","coordinates":[2.350987,48.856667]},"totalOffices":1.0},{"name":"Zazzle","lat":37.5108541,"lng":-122.2013557,"oficina_principal":{"type":"Point","coordinates":[-122.2013557,37.5108541]},"totalOffices":1.0},{"name":"Dogster","lat":37.762681,"lng":-122.400909,"oficina_principal":{"type":"Point","coordinates":[-122.400909,37.762681]},"totalOffices":1.0},{"name":"PBworks","lat":null,"lng":null,"oficina_principal":null,"totalOffices":1.0},{"name":"Sway","lat":43.090756,"lng":-89.522805,"oficina_principal":{"type":"Point","coordinates":[-89.522805,43.090756]},"totalOffices":1.0},{"name":"CornerWorld","lat":32.914662,"lng":-96.771281,"oficina_principal":{"type":"Point","coordinates":[-96.771281,32.914662]},"totalOffices":1.0},{"name":"adBrite","lat":37.779026,"lng":-122.40184,"oficina_principal":{"type":"Point","coordinates":[-122.40184,37.779026]},"totalOffices":1.0},{"name":"WatZatSong","lat":48.866323,"lng":2.381514,"oficina_principal":{"type":"Point","coordinates":[2.381514,48.866323]},"totalOffices":1.0},{"name":"Loomia","lat":37.796396,"lng":-122.404869,"oficina_principal":{"type":"Point","coordinates":[-122.404869,37.796396]},"totalOffices":1.0},{"name":"Meebo","lat":37.393679,"lng":-122.079017,"oficina_principal":{"type":"Point","coordinates":[-122.079017,37.393679]},"totalOffices":5.0},{"name":"Eventbrite","lat":37.779507,"lng":-122.39071,"oficina_principal":{"type":"Point","coordinates":[-122.39071,37.779507]},"totalOffices":1.0},{"name":"Newsvine","lat":47.618599,"lng":-122.358484,"oficina_principal":{"type":"Point","coordinates":[-122.358484,47.618599]},"totalOffices":1.0},{"name":"LinkedIn","lat":37.423258,"lng":-122.073635,"oficina_principal":{"type":"Point","coordinates":[-122.073635,37.423258]},"totalOffices":1.0},{"name":"FlickIM","lat":37.870744,"lng":-122.269259,"oficina_principal":{"type":"Point","coordinates":[-122.269259,37.870744]},"totalOffices":1.0},{"name":"Jamendo","lat":49.6026778,"lng":6.1329985,"oficina_principal":{"type":"Point","coordinates":[6.1329985,49.6026778]},"totalOffices":1.0},{"name":"Terabitz","lat":37.437328,"lng":-122.159928,"oficina_principal":{"type":"Point","coordinates":[-122.159928,37.437328]},"totalOffices":1.0},{"name":"Box","lat":37.425801,"lng":-122.143701,"oficina_principal":{"type":"Point","coordinates":[-122.143701,37.425801]},"totalOffices":1.0},{"name":"iLike","lat":47.615313,"lng":-122.323408,"oficina_principal":{"type":"Point","coordinates":[-122.323408,47.615313]},"totalOffices":1.0},{"name":"Ticketmaster","lat":34.0906602,"lng":-118.3835957,"oficina_principal":{"type":"Point","coordinates":[-118.3835957,34.0906602]},"totalOffices":1.0},{"name":"Cuts","lat":32.718834,"lng":-117.163841,"oficina_principal":{"type":"Point","coordinates":[-117.163841,32.718834]},"totalOffices":1.0},{"name":"Carbonite","lat":42.350571,"lng":-71.076869,"oficina_principal":{"type":"Point","coordinates":[-71.076869,42.350571]},"totalOffices":1.0},{"name":"Conduit","lat":37.561877,"lng":-122.325248,"oficina_principal":{"type":"Point","coordinates":[-122.325248,37.561877]},"totalOffices":1.0},{"name":"Edgeio","lat":37.443058,"lng":-122.161674,"oficina_principal":{"type":"Point","coordinates":[-122.161674,37.443058]},"totalOffices":1.0},{"name":"Kaboodle","lat":37.382162,"lng":-122.036301,"oficina_principal":{"type":"Point","coordinates":[-122.036301,37.382162]},"totalOffices":1.0},{"name":"GigaOM","lat":37.775196,"lng":-122.419204,"oficina_principal":{"type":"Point","coordinates":[-122.419204,37.775196]},"totalOffices":2.0},{"name":"Redfin","lat":47.603122,"lng":-122.333253,"oficina_principal":{"type":"Point","coordinates":[-122.333253,47.603122]},"totalOffices":1.0},{"name":"Wink","lat":37.40047,"lng":-122.072981,"oficina_principal":{"type":"Point","coordinates":[-122.072981,37.40047]},"totalOffices":1.0},{"name":"Go2Web20","lat":32.0554,"lng":34.7595,"oficina_principal":{"type":"Point","coordinates":[34.7595,32.0554]},"totalOffices":1.0},{"name":"coComment","lat":46.20381,"lng":6.139959,"oficina_principal":{"type":"Point","coordinates":[6.139959,46.20381]},"totalOffices":1.0},{"name":"Seesmic","lat":37.775196,"lng":-122.419204,"oficina_principal":{"type":"Point","coordinates":[-122.419204,37.775196]},"totalOffices":1.0},{"name":"TechnologyGuide","lat":39.06685,"lng":-84.351532,"oficina_principal":{"type":"Point","coordinates":[-84.351532,39.06685]},"totalOffices":1.0},{"name":"Hotelicopter","lat":38.030823,"lng":-78.48158,"oficina_principal":{"type":"Point","coordinates":[-78.48158,38.030823]},"totalOffices":1.0},{"name":"Zvents","lat":37.553121,"lng":-122.301534,"oficina_principal":{"type":"Point","coordinates":[-122.301534,37.553121]},"totalOffices":1.0},{"name":"MotionDSP","lat":null,"lng":null,"oficina_principal":null,"totalOffices":1.0},{"name":"Techmeme","lat":37.7618242,"lng":-122.3985871,"oficina_principal":{"type":"Point","coordinates":[-122.3985871,37.7618242]},"totalOffices":1.0},{"name":"Eventful","lat":32.872081,"lng":-117.206292,"oficina_principal":{"type":"Point","coordinates":[-117.206292,32.872081]},"totalOffices":2.0},{"name":"RegOnline","lat":39.9195028,"lng":-105.1110024,"oficina_principal":{"type":"Point","coordinates":[-105.1110024,39.9195028]},"totalOffices":1.0},{"name":"Oodle","lat":37.563585,"lng":-122.324621,"oficina_principal":{"type":"Point","coordinates":[-122.324621,37.563585]},"totalOffices":1.0},{"name":"oDesk","lat":37.479952,"lng":-122.178557,"oficina_principal":{"type":"Point","coordinates":[-122.178557,37.479952]},"totalOffices":1.0},{"name":"Simply Hired","lat":37.4219165,"lng":-122.0780632,"oficina_principal":{"type":"Point","coordinates":[-122.0780632,37.4219165]},"totalOffices":1.0},{"name":"ooma","lat":37.451958,"lng":-122.116026,"oficina_principal":{"type":"Point","coordinates":[-122.116026,37.451958]},"totalOffices":1.0},{"name":"Scripps Networks Interactive","lat":37.09024,"lng":-95.712891,"oficina_principal":{"type":"Point","coordinates":[-95.712891,37.09024]},"totalOffices":1.0},{"name":"Cofoundr","lat":37.796164,"lng":-122.420903,"oficina_principal":{"type":"Point","coordinates":[-122.420903,37.796164]},"totalOffices":1.0},{"name":"Ujogo","lat":37.76785,"lng":-122.392861,"oficina_principal":{"type":"Point","coordinates":[-122.392861,37.76785]},"totalOffices":1.0},{"name":"Recipezaar","lat":47.420728,"lng":-122.450942,"oficina_principal":{"type":"Point","coordinates":[-122.450942,47.420728]},"totalOffices":1.0},{"name":"Gumiyo","lat":34.184598,"lng":-118.601532,"oficina_principal":{"type":"Point","coordinates":[-118.601532,34.184598]},"totalOffices":1.0},{"name":"stylediary","lat":34.070436,"lng":-118.350486,"oficina_principal":{"type":"Point","coordinates":[-118.350486,34.070436]},"totalOffices":1.0},{"name":"ictv","lat":37.255118,"lng":-121.96533,"oficina_principal":{"type":"Point","coordinates":[-121.96533,37.255118]},"totalOffices":1.0},{"name":"GoingOn","lat":37.782263,"lng":-122.392142,"oficina_principal":{"type":"Point","coordinates":[-122.392142,37.782263]},"totalOffices":1.0},{"name":"Flixster","lat":37.766909,"lng":-122.406676,"oficina_principal":{"type":"Point","coordinates":[-122.406676,37.766909]},"totalOffices":1.0},{"name":"Vast","lat":37.787183,"lng":-122.397759,"oficina_principal":{"type":"Point","coordinates":[-122.397759,37.787183]},"totalOffices":2.0},{"name":"MyPublicInfo","lat":38.897428,"lng":-77.072003,"oficina_principal":{"type":"Point","coordinates":[-77.072003,38.897428]},"totalOffices":1.0},{"name":"Piczo","lat":37.793703,"lng":-122.398479,"oficina_principal":{"type":"Point","coordinates":[-122.398479,37.793703]},"totalOffices":1.0},{"name":"Checkster","lat":37.905544,"lng":-122.547445,"oficina_principal":{"type":"Point","coordinates":[-122.547445,37.905544]},"totalOffices":1.0},{"name":"revlayer","lat":40.757929,"lng":-73.985506,"oficina_principal":{"type":"Point","coordinates":[-73.985506,40.757929]},"totalOffices":1.0},{"name":"Cyworld","lat":null,"lng":null,"oficina_principal":null,"totalOffices":1.0},{"name":"PhotoBox","lat":null,"lng":null,"oficina_principal":null,"totalOffices":1.0},{"name":"Parakey","lat":37.40047,"lng":-122.072981,"oficina_principal":{"type":"Point","coordinates":[-122.072981,37.40047]},"totalOffices":1.0},{"name":"Spreadshirt","lat":40.437985,"lng":-80.004195,"oficina_principal":{"type":"Point","coordinates":[-80.004195,40.437985]},"totalOffices":1.0},{"name":"Socialtext","lat":37.442949,"lng":-122.1615,"oficina_principal":{"type":"Point","coordinates":[-122.1615,37.442949]},"totalOffices":1.0},{"name":"Bazaarvoice","lat":30.407545,"lng":-97.717667,"oficina_principal":{"type":"Point","coordinates":[-97.717667,30.407545]},"totalOffices":1.0},{"name":"IceRocket","lat":32.781078,"lng":-96.797111,"oficina_principal":{"type":"Point","coordinates":[-96.797111,32.781078]},"totalOffices":1.0},{"name":"spigit","lat":37.6637279,"lng":-121.8731805,"oficina_principal":{"type":"Point","coordinates":[-121.8731805,37.6637279]},"totalOffices":3.0},{"name":"barablu","lat":null,"lng":null,"oficina_principal":null,"totalOffices":1.0},{"name":"PowerReviews","lat":37.779558,"lng":-122.393041,"oficina_principal":{"type":"Point","coordinates":[-122.393041,37.779558]},"totalOffices":2.0},{"name":"ConnectMeAnywhere","lat":51.514935,"lng":-0.205349,"oficina_principal":{"type":"Point","coordinates":[-0.205349,51.514935]},"totalOffices":1.0},{"name":"LiveWorld","lat":37.321798,"lng":-121.979453,"oficina_principal":{"type":"Point","coordinates":[-121.979453,37.321798]},"totalOffices":2.0},{"name":"Ohloh","lat":null,"lng":null,"oficina_principal":null,"totalOffices":1.0},{"name":"hi5","lat":37.788668,"lng":-122.400558,"oficina_principal":{"type":"Point","coordinates":[-122.400558,37.788668]},"totalOffices":1.0},{"name":"Clipperz","lat":44.418166,"lng":11.978686,"oficina_principal":{"type":"Point","coordinates":[11.978686,44.418166]},"totalOffices":1.0},{"name":"Tagged","lat":37.7753,"lng":-122.4186,"oficina_principal":{"type":"Point","coordinates":[-122.4186,37.7753]},"totalOffices":1.0},{"name":"ScanScout","lat":42.340889,"lng":-71.051931,"oficina_principal":{"type":"Point","coordinates":[-71.051931,42.340889]},"totalOffices":3.0},{"name":"37signals","lat":41.8892178,"lng":-87.6557234,"oficina_principal":{"type":"Point","coordinates":[-87.6557234,41.8892178]},"totalOffices":1.0},{"name":"Nintendo","lat":36.204824,"lng":138.252924,"oficina_principal":{"type":"Point","coordinates":[138.252924,36.204824]},"totalOffices":1.0},{"name":"Indeed","lat":41.038155,"lng":-73.558082,"oficina_principal":{"type":"Point","coordinates":[-73.558082,41.038155]},"totalOffices":2.0},{"name":"Jaxtr","lat":37.451026,"lng":-122.18676,"oficina_principal":{"type":"Point","coordinates":[-122.18676,37.451026]},"totalOffices":1.0},{"name":"Cerado","lat":37.774321,"lng":-122.415375,"oficina_principal":{"type":"Point","coordinates":[-122.415375,37.774321]},"totalOffices":1.0},{"name":"NetSuite","lat":37.536172,"lng":-122.327323,"oficina_principal":{"type":"Point","coordinates":[-122.327323,37.536172]},"totalOffices":1.0},{"name":"ONEsite","lat":35.612679,"lng":-97.5736,"oficina_principal":{"type":"Point","coordinates":[-97.5736,35.612679]},"totalOffices":1.0},{"name":"introNetworks","lat":34.42071,"lng":-119.641821,"oficina_principal":{"type":"Point","coordinates":[-119.641821,34.42071]},"totalOffices":1.0},{"name":"Kwiqq","lat":null,"lng":null,"oficina_principal":null,"totalOffices":1.0},{"name":"Going","lat":42.355672,"lng":-71.060864,"oficina_principal":{"type":"Point","coordinates":[-71.060864,42.355672]},"totalOffices":1.0},{"name":"WikiYou","lat":null,"lng":null,"oficina_principal":null,"totalOffices":1.0},{"name":"Wallhogs","lat":40.30305,"lng":-79.462703,"oficina_principal":{"type":"Point","coordinates":[-79.462703,40.30305]},"totalOffices":1.0},{"name":"Respectance","lat":37.55909,"lng":-122.321836,"oficina_principal":{"type":"Point","coordinates":[-122.321836,37.55909]},"totalOffices":1.0},{"name":"Curse","lat":37.787092,"lng":-122.399972,"oficina_principal":{"type":"Point","coordinates":[-122.399972,37.787092]},"totalOffices":2.0},{"name":"Jaman","lat":37.536172,"lng":-122.327323,"oficina_principal":{"type":"Point","coordinates":[-122.327323,37.536172]},"totalOffices":1.0},{"name":"GoLightly","lat":37.898575,"lng":-122.537302,"oficina_principal":{"type":"Point","coordinates":[-122.537302,37.898575]},"totalOffices":1.0},{"name":"eBuddy","lat":52.3640933,"lng":4.8919457,"oficina_principal":{"type":"Point","coordinates":[4.8919457,52.3640933]},"totalOffices":3.0},{"name":"DZOIC","lat":37.09024,"lng":-95.712891,"oficina_principal":{"type":"Point","coordinates":[-95.712891,37.09024]},"totalOffices":1.0},{"name":"Grockit","lat":37.775196,"lng":-122.419204,"oficina_principal":{"type":"Point","coordinates":[-122.419204,37.775196]},"totalOffices":1.0},{"name":"PeerMe","lat":37.419819,"lng":-122.090188,"oficina_principal":{"type":"Point","coordinates":[-122.090188,37.419819]},"totalOffices":1.0},{"name":"Kiptronic","lat":37.792394,"lng":-122.402349,"oficina_principal":{"type":"Point","coordinates":[-122.402349,37.792394]},"totalOffices":1.0},{"name":"Adobe Systems","lat":37.320052,"lng":-121.877636,"oficina_principal":{"type":"Point","coordinates":[-121.877636,37.320052]},"totalOffices":1.0},{"name":"Zenfolio","lat":37.4484914,"lng":-122.1802812,"oficina_principal":{"type":"Point","coordinates":[-122.1802812,37.4484914]},"totalOffices":1.0},{"name":"CollegeWikis","lat":37.09024,"lng":-95.712891,"oficina_principal":{"type":"Point","coordinates":[-95.712891,37.09024]},"totalOffices":1.0},{"name":"FeVote","lat":37.779392,"lng":-122.417928,"oficina_principal":{"type":"Point","coordinates":[-122.417928,37.779392]},"totalOffices":1.0},{"name":"Vuze","lat":37.4858654,"lng":-122.2262606,"oficina_principal":{"type":"Point","coordinates":[-122.2262606,37.4858654]},"totalOffices":1.0},{"name":"JumpBox","lat":33.429864,"lng":-111.944967,"oficina_principal":{"type":"Point","coordinates":[-111.944967,33.429864]},"totalOffices":1.0},{"name":"Phonezoo","lat":37.386376,"lng":-121.991471,"oficina_principal":{"type":"Point","coordinates":[-121.991471,37.386376]},"totalOffices":1.0},{"name":"LongJump","lat":37.384651,"lng":-121.992132,"oficina_principal":{"type":"Point","coordinates":[-121.992132,37.384651]},"totalOffices":1.0},{"name":"Relationals","lat":37.384651,"lng":-121.992132,"oficina_principal":{"type":"Point","coordinates":[-121.992132,37.384651]},"totalOffices":1.0},{"name":"Wishpot","lat":47.620716,"lng":-122.347533,"oficina_principal":{"type":"Point","coordinates":[-122.347533,47.620716]},"totalOffices":1.0},{"name":"ProfileBuilder","lat":42.545787,"lng":-83.215454,"oficina_principal":{"type":"Point","coordinates":[-83.215454,42.545787]},"totalOffices":1.0},{"name":"DOmedia","lat":39.967704,"lng":-83.005038,"oficina_principal":{"type":"Point","coordinates":[-83.005038,39.967704]},"totalOffices":1.0},{"name":"Truemors","lat":37.446687,"lng":-122.163189,"oficina_principal":{"type":"Point","coordinates":[-122.163189,37.446687]},"totalOffices":1.0},{"name":"Nononina","lat":37.269175,"lng":-119.306607,"oficina_principal":{"type":"Point","coordinates":[-119.306607,37.269175]},"totalOffices":1.0},{"name":"PodTech","lat":37.408256,"lng":-122.154176,"oficina_principal":{"type":"Point","coordinates":[-122.154176,37.408256]},"totalOffices":1.0},{"name":"NowPublic","lat":49.283376,"lng":-123.103986,"oficina_principal":{"type":"Point","coordinates":[-123.103986,49.283376]},"totalOffices":1.0},{"name":"PayScale","lat":47.5999337,"lng":-122.3276962,"oficina_principal":{"type":"Point","coordinates":[-122.3276962,47.5999337]},"totalOffices":1.0},{"name":"Crackle","lat":34.017506,"lng":-118.401579,"oficina_principal":{"type":"Point","coordinates":[-118.401579,34.017506]},"totalOffices":1.0},{"name":"Sony","lat":37.09024,"lng":-95.712891,"oficina_principal":{"type":"Point","coordinates":[-95.712891,37.09024]},"totalOffices":1.0},{"name":"Clipmarks","lat":40.757929,"lng":-73.985506,"oficina_principal":{"type":"Point","coordinates":[-73.985506,40.757929]},"totalOffices":1.0},{"name":"Forbes","lat":40.736416,"lng":-73.993302,"oficina_principal":{"type":"Point","coordinates":[-73.993302,40.736416]},"totalOffices":1.0},{"name":"Truphone","lat":null,"lng":null,"oficina_principal":null,"totalOffices":6.0},{"name":"Boonex","lat":-33.722577,"lng":150.981801,"oficina_principal":{"type":"Point","coordinates":[150.981801,-33.722577]},"totalOffices":1.0},{"name":"Hotswap","lat":37.872222,"lng":-122.268403,"oficina_principal":{"type":"Point","coordinates":[-122.268403,37.872222]},"totalOffices":1.0},{"name":"IntenseDebate","lat":40.010492,"lng":-105.276843,"oficina_principal":{"type":"Point","coordinates":[-105.276843,40.010492]},"totalOffices":1.0},{"name":"Lotame","lat":39.205649,"lng":-76.77514,"oficina_principal":{"type":"Point","coordinates":[-76.77514,39.205649]},"totalOffices":6.0},{"name":"Reddit","lat":37.780883,"lng":-122.395257,"oficina_principal":{"type":"Point","coordinates":[-122.395257,37.780883]},"totalOffices":1.0},{"name":"Rebtel","lat":59.3167843,"lng":18.1582777,"oficina_principal":{"type":"Point","coordinates":[18.1582777,59.3167843]},"totalOffices":1.0},{"name":"Wikia","lat":null,"lng":null,"oficina_principal":null,"totalOffices":1.0},{"name":"Amazon","lat":47.5923,"lng":-122.317295,"oficina_principal":{"type":"Point","coordinates":[-122.317295,47.5923]},"totalOffices":1.0},{"name":"BuddyTV","lat":47.61968,"lng":-122.356756,"oficina_principal":{"type":"Point","coordinates":[-122.356756,47.61968]},"totalOffices":1.0},{"name":"Retrevo","lat":37.368594,"lng":-122.034021,"oficina_principal":{"type":"Point","coordinates":[-122.034021,37.368594]},"totalOffices":1.0},{"name":"Buxfer","lat":37.400465,"lng":-122.073003,"oficina_principal":{"type":"Point","coordinates":[-122.073003,37.400465]},"totalOffices":1.0},{"name":"boo-box","lat":-23.558584,"lng":-46.679287,"oficina_principal":{"type":"Point","coordinates":[-46.679287,-23.558584]},"totalOffices":1.0},{"name":"Qualcomm","lat":32.89746,"lng":-117.195414,"oficina_principal":{"type":"Point","coordinates":[-117.195414,32.89746]},"totalOffices":1.0},{"name":"SplashCast","lat":37.09024,"lng":-95.712891,"oficina_principal":{"type":"Point","coordinates":[-95.712891,37.09024]},"totalOffices":1.0},{"name":"Brightcove","lat":42.362993,"lng":-71.086596,"oficina_principal":{"type":"Point","coordinates":[-71.086596,42.362993]},"totalOffices":7.0},{"name":"Hightail","lat":37.288974,"lng":-121.935688,"oficina_principal":{"type":"Point","coordinates":[-121.935688,37.288974]},"totalOffices":1.0},{"name":"Nimbuzz","lat":51.9122575,"lng":4.5464658,"oficina_principal":{"type":"Point","coordinates":[4.5464658,51.9122575]},"totalOffices":2.0},{"name":"Tangler","lat":37.386665,"lng":-122.084171,"oficina_principal":{"type":"Point","coordinates":[-122.084171,37.386665]},"totalOffices":1.0},{"name":"TextPayMe","lat":47.672229,"lng":-122.115633,"oficina_principal":{"type":"Point","coordinates":[-122.115633,47.672229]},"totalOffices":1.0},{"name":"obopay","lat":37.524729,"lng":-122.258037,"oficina_principal":{"type":"Point","coordinates":[-122.258037,37.524729]},"totalOffices":1.0},{"name":"KushCash","lat":33.58273,"lng":-117.727468,"oficina_principal":{"type":"Point","coordinates":[-117.727468,33.58273]},"totalOffices":1.0},{"name":"BillMonk","lat":47.620716,"lng":-122.347533,"oficina_principal":{"type":"Point","coordinates":[-122.347533,47.620716]},"totalOffices":1.0},{"name":"PayPal","lat":37.294465,"lng":-121.927696,"oficina_principal":{"type":"Point","coordinates":[-121.927696,37.294465]},"totalOffices":1.0},{"name":"TalkPlus","lat":37.553743,"lng":-122.300246,"oficina_principal":{"type":"Point","coordinates":[-122.300246,37.553743]},"totalOffices":1.0},{"name":"Vudu","lat":null,"lng":null,"oficina_principal":null,"totalOffices":1.0},{"name":"MeeMix","lat":32.0554,"lng":34.7595,"oficina_principal":{"type":"Point","coordinates":[34.7595,32.0554]},"totalOffices":1.0},{"name":"Citizenbay","lat":37.09024,"lng":-95.712891,"oficina_principal":{"type":"Point","coordinates":[-95.712891,37.09024]},"totalOffices":1.0},{"name":"The Walt Disney Company","lat":34.156802,"lng":-118.324987,"oficina_principal":{"type":"Point","coordinates":[-118.324987,34.156802]},"totalOffices":1.0},{"name":"Alstrasoft","lat":null,"lng":null,"oficina_principal":null,"totalOffices":1.0},{"name":"PermissionTV","lat":42.417268,"lng":-71.258466,"oficina_principal":{"type":"Point","coordinates":[-71.258466,42.417268]},"totalOffices":1.0},{"name":"WebbAlert","lat":34.052187,"lng":-118.243425,"oficina_principal":{"type":"Point","coordinates":[-118.243425,34.052187]},"totalOffices":1.0},{"name":"Rocketboom","lat":40.797364,"lng":-73.97785,"oficina_principal":{"type":"Point","coordinates":[-73.97785,40.797364]},"totalOffices":1.0},{"name":"WallStrip","lat":37.09024,"lng":-95.712891,"oficina_principal":{"type":"Point","coordinates":[-95.712891,37.09024]},"totalOffices":1.0},{"name":"Citysearch","lat":34.090932,"lng":-118.38428,"oficina_principal":{"type":"Point","coordinates":[-118.38428,34.090932]},"totalOffices":1.0},{"name":"IAC","lat":40.745172,"lng":-74.007646,"oficina_principal":{"type":"Point","coordinates":[-74.007646,40.745172]},"totalOffices":1.0},{"name":"AOL","lat":40.7311317,"lng":-73.9919311,"oficina_principal":{"type":"Point","coordinates":[-73.9919311,40.7311317]},"totalOffices":1.0},{"name":"Snapfish","lat":37.78554,"lng":-122.396689,"oficina_principal":{"type":"Point","coordinates":[-122.396689,37.78554]},"totalOffices":1.0},{"name":"Hewlett-Packard","lat":37.437328,"lng":-122.159928,"oficina_principal":{"type":"Point","coordinates":[-122.159928,37.437328]},"totalOffices":2.0},{"name":"Mattel","lat":33.920296,"lng":-118.391852,"oficina_principal":{"type":"Point","coordinates":[-118.391852,33.920296]},"totalOffices":1.0},{"name":"Kaneva","lat":33.916374,"lng":-84.350663,"oficina_principal":{"type":"Point","coordinates":[-84.350663,33.916374]},"totalOffices":1.0},{"name":"IMVU","lat":37.3927975,"lng":-122.0727749,"oficina_principal":{"type":"Point","coordinates":[-122.0727749,37.3927975]},"totalOffices":1.0},{"name":"Techstars","lat":40.010492,"lng":-105.276843,"oficina_principal":{"type":"Point","coordinates":[-105.276843,40.010492]},"totalOffices":1.0},{"name":"madKast","lat":40.010492,"lng":-105.276843,"oficina_principal":{"type":"Point","coordinates":[-105.276843,40.010492]},"totalOffices":1.0},{"name":"Nirvanix","lat":32.877656,"lng":-117.210595,"oficina_principal":{"type":"Point","coordinates":[-117.210595,32.877656]},"totalOffices":1.0},{"name":"Userplane","lat":34.01676,"lng":-118.495566,"oficina_principal":{"type":"Point","coordinates":[-118.495566,34.01676]},"totalOffices":1.0},{"name":"Outdoorzy","lat":37.018244,"lng":-86.463026,"oficina_principal":{"type":"Point","coordinates":[-86.463026,37.018244]},"totalOffices":1.0},{"name":"Scrybe","lat":40.270666,"lng":-74.761403,"oficina_principal":{"type":"Point","coordinates":[-74.761403,40.270666]},"totalOffices":1.0},{"name":"Aniboom","lat":31.046051,"lng":34.851612,"oficina_principal":{"type":"Point","coordinates":[34.851612,31.046051]},"totalOffices":1.0},{"name":"Meetro","lat":37.437328,"lng":-122.159928,"oficina_principal":{"type":"Point","coordinates":[-122.159928,37.437328]},"totalOffices":1.0},{"name":"Webkinz","lat":43.76969,"lng":-79.549577,"oficina_principal":{"type":"Point","coordinates":[-79.549577,43.76969]},"totalOffices":1.0},{"name":"Zwinky","lat":null,"lng":null,"oficina_principal":null,"totalOffices":1.0},{"name":"MyToons","lat":29.427051,"lng":-98.487764,"oficina_principal":{"type":"Point","coordinates":[-98.487764,29.427051]},"totalOffices":1.0},{"name":"Mokitown","lat":37.09024,"lng":-95.712891,"oficina_principal":{"type":"Point","coordinates":[-95.712891,37.09024]},"totalOffices":1.0},{"name":"ActiveWorlds","lat":42.7973978,"lng":-70.8873327,"oficina_principal":{"type":"Point","coordinates":[-70.8873327,42.7973978]},"totalOffices":2.0},{"name":"Sulake","lat":60.165166,"lng":24.945937,"oficina_principal":{"type":"Point","coordinates":[24.945937,60.165166]},"totalOffices":1.0},{"name":"Neopets","lat":37.09024,"lng":-95.712891,"oficina_principal":{"type":"Point","coordinates":[-95.712891,37.09024]},"totalOffices":1.0},{"name":"Dubit","lat":null,"lng":null,"oficina_principal":null,"totalOffices":1.0},{"name":"Viagogo","lat":51.500152,"lng":-0.126236,"oficina_principal":{"type":"Point","coordinates":[-0.126236,51.500152]},"totalOffices":1.0},{"name":"KnockaTV","lat":31.046051,"lng":34.851612,"oficina_principal":{"type":"Point","coordinates":[34.851612,31.046051]},"totalOffices":1.0},{"name":"Faketown","lat":33.988337,"lng":-118.472721,"oficina_principal":{"type":"Point","coordinates":[-118.472721,33.988337]},"totalOffices":1.0},{"name":"Millsberry","lat":37.09024,"lng":-95.712891,"oficina_principal":{"type":"Point","coordinates":[-95.712891,37.09024]},"totalOffices":1.0},{"name":"Echo","lat":38.0729365,"lng":-122.1879633,"oficina_principal":{"type":"Point","coordinates":[-122.1879633,38.0729365]},"totalOffices":1.0},{"name":"GreatCall","lat":32.964294,"lng":-117.265191,"oficina_principal":{"type":"Point","coordinates":[-117.265191,32.964294]},"totalOffices":1.0},{"name":"INgage Networks","lat":26.246414,"lng":-81.788104,"oficina_principal":{"type":"Point","coordinates":[-81.788104,26.246414]},"totalOffices":2.0},{"name":"Omnifuse","lat":33.610083,"lng":-117.928351,"oficina_principal":{"type":"Point","coordinates":[-117.928351,33.610083]},"totalOffices":1.0},{"name":"Pickle","lat":38.892371,"lng":-77.081732,"oficina_principal":{"type":"Point","coordinates":[-77.081732,38.892371]},"totalOffices":1.0},{"name":"Strayform","lat":31.169036,"lng":-100.076888,"oficina_principal":{"type":"Point","coordinates":[-100.076888,31.169036]},"totalOffices":1.0},{"name":"SelectMinds","lat":40.740251,"lng":-73.990004,"oficina_principal":{"type":"Point","coordinates":[-73.990004,40.740251]},"totalOffices":1.0},{"name":"Revver","lat":34.052187,"lng":-118.243425,"oficina_principal":{"type":"Point","coordinates":[-118.243425,34.052187]},"totalOffices":1.0},{"name":"HireAHelper","lat":null,"lng":null,"oficina_principal":null,"totalOffices":1.0},{"name":"Metacafe","lat":37.437328,"lng":-122.159928,"oficina_principal":{"type":"Point","coordinates":[-122.159928,37.437328]},"totalOffices":1.0},{"name":"MindTouch","lat":32.720656,"lng":-117.167831,"oficina_principal":{"type":"Point","coordinates":[-117.167831,32.720656]},"totalOffices":1.0},{"name":"ChaCha","lat":39.998641,"lng":-86.130347,"oficina_principal":{"type":"Point","coordinates":[-86.130347,39.998641]},"totalOffices":2.0},{"name":"Flock","lat":37.491356,"lng":-122.228843,"oficina_principal":{"type":"Point","coordinates":[-122.228843,37.491356]},"totalOffices":1.0},{"name":"Social Platform","lat":34.101617,"lng":-118.327071,"oficina_principal":{"type":"Point","coordinates":[-118.327071,34.101617]},"totalOffices":1.0},{"name":"webcrossing","lat":37.794649,"lng":-122.399646,"oficina_principal":{"type":"Point","coordinates":[-122.399646,37.794649]},"totalOffices":1.0},{"name":"Kontera","lat":37.767575,"lng":-122.411157,"oficina_principal":{"type":"Point","coordinates":[-122.411157,37.767575]},"totalOffices":1.0},{"name":"Sportingo","lat":17.08881,"lng":-96.76492,"oficina_principal":{"type":"Point","coordinates":[-96.76492,17.08881]},"totalOffices":1.0},{"name":"Akamai Technologies","lat":42.364059,"lng":-71.08907,"oficina_principal":{"type":"Point","coordinates":[-71.08907,42.364059]},"totalOffices":1.0},{"name":"Dropbox","lat":37.7909427,"lng":-122.4084994,"oficina_principal":{"type":"Point","coordinates":[-122.4084994,37.7909427]},"totalOffices":2.0},{"name":"Splashup","lat":37.09024,"lng":-95.712891,"oficina_principal":{"type":"Point","coordinates":[-95.712891,37.09024]},"totalOffices":1.0},{"name":"Curverider","lat":51.785428,"lng":-1.197534,"oficina_principal":{"type":"Point","coordinates":[-1.197534,51.785428]},"totalOffices":1.0},{"name":"MobiTV","lat":null,"lng":null,"oficina_principal":null,"totalOffices":1.0},{"name":"TimeBridge","lat":null,"lng":null,"oficina_principal":null,"totalOffices":1.0},{"name":"Yoomba","lat":37.48413,"lng":-122.169472,"oficina_principal":{"type":"Point","coordinates":[-122.169472,37.48413]},"totalOffices":1.0},{"name":"Negonation","lat":40.463667,"lng":-3.74922,"oficina_principal":{"type":"Point","coordinates":[-3.74922,40.463667]},"totalOffices":1.0},{"name":"Snocap","lat":null,"lng":null,"oficina_principal":null,"totalOffices":1.0},{"name":"IODA","lat":37.780134,"lng":-122.396744,"oficina_principal":{"type":"Point","coordinates":[-122.396744,37.780134]},"totalOffices":1.0},{"name":"SomethingSimpler","lat":49.263588,"lng":-123.138565,"oficina_principal":{"type":"Point","coordinates":[-123.138565,49.263588]},"totalOffices":1.0},{"name":"TokBox","lat":37.779507,"lng":-122.39071,"oficina_principal":{"type":"Point","coordinates":[-122.39071,37.779507]},"totalOffices":4.0},{"name":"Jimdo","lat":null,"lng":null,"oficina_principal":null,"totalOffices":4.0},{"name":"YellowBot","lat":34.1872813,"lng":-118.3489963,"oficina_principal":{"type":"Point","coordinates":[-118.3489963,34.1872813]},"totalOffices":1.0},{"name":"Solfo","lat":34.1872813,"lng":-118.3489963,"oficina_principal":{"type":"Point","coordinates":[-118.3489963,34.1872813]},"totalOffices":1.0},{"name":"MDJunction","lat":null,"lng":null,"oficina_principal":null,"totalOffices":1.0},{"name":"Sampa","lat":47.682233,"lng":-122.135521,"oficina_principal":{"type":"Point","coordinates":[-122.135521,47.682233]},"totalOffices":1.0},{"name":"Six Apart","lat":35.6725213,"lng":139.7326754,"oficina_principal":{"type":"Point","coordinates":[139.7326754,35.6725213]},"totalOffices":1.0},{"name":"Weebly","lat":37.795555,"lng":-122.400729,"oficina_principal":{"type":"Point","coordinates":[-122.400729,37.795555]},"totalOffices":1.0},{"name":"Yola","lat":37.7911148,"lng":-122.3954751,"oficina_principal":{"type":"Point","coordinates":[-122.3954751,37.7911148]},"totalOffices":2.0},{"name":"RealEditor","lat":38.805114,"lng":-77.236968,"oficina_principal":{"type":"Point","coordinates":[-77.236968,38.805114]},"totalOffices":1.0},{"name":"BitTorrent","lat":37.790998,"lng":-122.394668,"oficina_principal":{"type":"Point","coordinates":[-122.394668,37.790998]},"totalOffices":1.0},{"name":"Kongregate","lat":37.786942,"lng":-122.401245,"oficina_principal":{"type":"Point","coordinates":[-122.401245,37.786942]},"totalOffices":1.0},{"name":"DanceJam","lat":37.781557,"lng":-122.407959,"oficina_principal":{"type":"Point","coordinates":[-122.407959,37.781557]},"totalOffices":1.0},{"name":"Inneractive","lat":37.5646055,"lng":-122.3229235,"oficina_principal":{"type":"Point","coordinates":[-122.3229235,37.5646055]},"totalOffices":1.0},{"name":"EventVue","lat":40.010492,"lng":-105.276843,"oficina_principal":{"type":"Point","coordinates":[-105.276843,40.010492]},"totalOffices":1.0},{"name":"Socialthing","lat":40.0186731,"lng":-105.2762236,"oficina_principal":{"type":"Point","coordinates":[-105.2762236,40.0186731]},"totalOffices":1.0},{"name":"Filtrbox","lat":40.010492,"lng":-105.276843,"oficina_principal":{"type":"Point","coordinates":[-105.276843,40.010492]},"totalOffices":1.0},{"name":"Brightkite","lat":39.762314,"lng":-104.982256,"oficina_principal":{"type":"Point","coordinates":[-104.982256,39.762314]},"totalOffices":1.0},{"name":"Bountii","lat":37.437328,"lng":-122.159928,"oficina_principal":{"type":"Point","coordinates":[-122.159928,37.437328]},"totalOffices":1.0},{"name":"Eventbee","lat":37.383779,"lng":-122.007172,"oficina_principal":{"type":"Point","coordinates":[-122.007172,37.383779]},"totalOffices":1.0},{"name":"SlapVid","lat":40.445009,"lng":-79.948563,"oficina_principal":{"type":"Point","coordinates":[-79.948563,40.445009]},"totalOffices":1.0},{"name":"Cloudant","lat":42.35892,"lng":-71.05781,"oficina_principal":{"type":"Point","coordinates":[-71.05781,42.35892]},"totalOffices":1.0},{"name":"Veotag","lat":40.752957,"lng":-73.98546,"oficina_principal":{"type":"Point","coordinates":[-73.98546,40.752957]},"totalOffices":1.0},{"name":"Guba","lat":37.09024,"lng":-95.712891,"oficina_principal":{"type":"Point","coordinates":[-95.712891,37.09024]},"totalOffices":1.0},{"name":"GoFish","lat":37.09024,"lng":-95.712891,"oficina_principal":{"type":"Point","coordinates":[-95.712891,37.09024]},"totalOffices":1.0},{"name":"KIT digital","lat":40.751816,"lng":-73.971655,"oficina_principal":{"type":"Point","coordinates":[-73.971655,40.751816]},"totalOffices":10.0},{"name":"Kiva","lat":37.762125,"lng":-122.4147,"oficina_principal":{"type":"Point","coordinates":[-122.4147,37.762125]},"totalOffices":1.0},{"name":"Digitalsmiths","lat":null,"lng":null,"oficina_principal":null,"totalOffices":1.0},{"name":"PartnerUp","lat":null,"lng":null,"oficina_principal":null,"totalOffices":1.0},{"name":"Sun Microsystems","lat":37.394791,"lng":-121.955463,"oficina_principal":{"type":"Point","coordinates":[-121.955463,37.394791]},"totalOffices":1.0},{"name":"Pixsy Image Search","lat":37.779558,"lng":-122.393041,"oficina_principal":{"type":"Point","coordinates":[-122.393041,37.779558]},"totalOffices":1.0},{"name":"Zopa","lat":51.517904,"lng":-0.139947,"oficina_principal":{"type":"Point","coordinates":[-0.139947,51.517904]},"totalOffices":1.0},{"name":"Fathom Online","lat":37.775196,"lng":-122.419204,"oficina_principal":{"type":"Point","coordinates":[-122.419204,37.775196]},"totalOffices":1.0},{"name":"Hitwise","lat":-37.814251,"lng":144.963169,"oficina_principal":{"type":"Point","coordinates":[144.963169,-37.814251]},"totalOffices":1.0},{"name":"Jambo","lat":37.09024,"lng":-95.712891,"oficina_principal":{"type":"Point","coordinates":[-95.712891,37.09024]},"totalOffices":1.0},{"name":"Zivity","lat":37.789488,"lng":-122.397593,"oficina_principal":{"type":"Point","coordinates":[-122.397593,37.789488]},"totalOffices":1.0},{"name":"SuicideGirls","lat":34.062262,"lng":-118.348198,"oficina_principal":{"type":"Point","coordinates":[-118.348198,34.062262]},"totalOffices":1.0},{"name":"BlueLithium","lat":37.32052,"lng":-121.948399,"oficina_principal":{"type":"Point","coordinates":[-121.948399,37.32052]},"totalOffices":1.0},{"name":"ContextWeb","lat":40.71014,"lng":-74.010808,"oficina_principal":{"type":"Point","coordinates":[-74.010808,40.71014]},"totalOffices":1.0},{"name":"eXpresso","lat":37.451637,"lng":-122.121932,"oficina_principal":{"type":"Point","coordinates":[-122.121932,37.451637]},"totalOffices":1.0},{"name":"Goowy","lat":32.71537,"lng":-117.163353,"oficina_principal":{"type":"Point","coordinates":[-117.163353,32.71537]},"totalOffices":1.0},{"name":"MySpace","lat":34.076061,"lng":-118.372953,"oficina_principal":{"type":"Point","coordinates":[-118.372953,34.076061]},"totalOffices":1.0},{"name":"InviteShare","lat":37.450128,"lng":-122.205016,"oficina_principal":{"type":"Point","coordinates":[-122.205016,37.450128]},"totalOffices":1.0},{"name":"Jooce","lat":48.856667,"lng":2.350987,"oficina_principal":{"type":"Point","coordinates":[2.350987,48.856667]},"totalOffices":1.0},{"name":"A9","lat":37.444554,"lng":-122.164511,"oficina_principal":{"type":"Point","coordinates":[-122.164511,37.444554]},"totalOffices":1.0},{"name":"Doostang","lat":37.427235,"lng":-122.145783,"oficina_principal":{"type":"Point","coordinates":[-122.145783,37.427235]},"totalOffices":1.0},{"name":"TechCrunch","lat":37.4459832,"lng":-122.1490582,"oficina_principal":{"type":"Point","coordinates":[-122.1490582,37.4459832]},"totalOffices":1.0},{"name":"JumpTV","lat":40.705898,"lng":-74.011398,"oficina_principal":{"type":"Point","coordinates":[-74.011398,40.705898]},"totalOffices":1.0},{"name":"Helium","lat":42.675189,"lng":-71.1469,"oficina_principal":{"type":"Point","coordinates":[-71.1469,42.675189]},"totalOffices":1.0},{"name":"ZoomInfo","lat":42.38532,"lng":-71.207055,"oficina_principal":{"type":"Point","coordinates":[-71.207055,42.38532]},"totalOffices":1.0},{"name":"Zappos","lat":36.032976,"lng":-115.064859,"oficina_principal":{"type":"Point","coordinates":[-115.064859,36.032976]},"totalOffices":2.0},{"name":"Zango","lat":47.579208,"lng":-122.155668,"oficina_principal":{"type":"Point","coordinates":[-122.155668,47.579208]},"totalOffices":1.0},{"name":"Docstoc","lat":34.018275,"lng":-118.495025,"oficina_principal":{"type":"Point","coordinates":[-118.495025,34.018275]},"totalOffices":1.0},{"name":"Vlingo","lat":42.372912,"lng":-71.118999,"oficina_principal":{"type":"Point","coordinates":[-71.118999,42.372912]},"totalOffices":1.0},{"name":"ZYB","lat":55.699123,"lng":12.541484,"oficina_principal":{"type":"Point","coordinates":[12.541484,55.699123]},"totalOffices":1.0},{"name":"DotBlu","lat":37.09024,"lng":-95.712891,"oficina_principal":{"type":"Point","coordinates":[-95.712891,37.09024]},"totalOffices":1.0},{"name":"Covestor","lat":null,"lng":null,"oficina_principal":null,"totalOffices":2.0},{"name":"Mevio","lat":37.782263,"lng":-122.392142,"oficina_principal":{"type":"Point","coordinates":[-122.392142,37.782263]},"totalOffices":1.0},{"name":"Ruckus","lat":37.09024,"lng":-95.712891,"oficina_principal":{"type":"Point","coordinates":[-95.712891,37.09024]},"totalOffices":1.0},{"name":"Shock Treatment Management","lat":47.610332,"lng":-122.339859,"oficina_principal":{"type":"Point","coordinates":[-122.339859,47.610332]},"totalOffices":1.0},{"name":"NewsGator","lat":39.755092,"lng":-104.988123,"oficina_principal":{"type":"Point","coordinates":[-104.988123,39.755092]},"totalOffices":1.0},{"name":"Pluck","lat":30.268735,"lng":-97.745209,"oficina_principal":{"type":"Point","coordinates":[-97.745209,30.268735]},"totalOffices":1.0},{"name":"FilmLoop","lat":37.48413,"lng":-122.169472,"oficina_principal":{"type":"Point","coordinates":[-122.169472,37.48413]},"totalOffices":1.0},{"name":"BitPass","lat":37.40047,"lng":-122.072981,"oficina_principal":{"type":"Point","coordinates":[-122.072981,37.40047]},"totalOffices":1.0},{"name":"Alibaba","lat":null,"lng":null,"oficina_principal":null,"totalOffices":1.0},{"name":"Kelkoo","lat":37.09024,"lng":-95.712891,"oficina_principal":{"type":"Point","coordinates":[-95.712891,37.09024]},"totalOffices":1.0},{"name":"Musicmatch","lat":37.09024,"lng":-95.712891,"oficina_principal":{"type":"Point","coordinates":[-95.712891,37.09024]},"totalOffices":1.0},{"name":"sezmi","lat":37.524422,"lng":-122.265869,"oficina_principal":{"type":"Point","coordinates":[-122.265869,37.524422]},"totalOffices":3.0},{"name":"Atom Entertainment","lat":37.790964,"lng":-122.401128,"oficina_principal":{"type":"Point","coordinates":[-122.401128,37.790964]},"totalOffices":1.0},{"name":"CinemaNow","lat":33.983543,"lng":-118.432526,"oficina_principal":{"type":"Point","coordinates":[-118.432526,33.983543]},"totalOffices":1.0},{"name":"eHarmony","lat":34.145946,"lng":-118.132351,"oficina_principal":{"type":"Point","coordinates":[-118.132351,34.145946]},"totalOffices":1.0},{"name":"Friendster","lat":3.139003,"lng":101.686855,"oficina_principal":{"type":"Point","coordinates":[101.686855,3.139003]},"totalOffices":1.0},{"name":"Heavy","lat":40.753385,"lng":-73.98962,"oficina_principal":{"type":"Point","coordinates":[-73.98962,40.753385]},"totalOffices":1.0},{"name":"Nielsen","lat":40.731118,"lng":-73.991933,"oficina_principal":{"type":"Point","coordinates":[-73.991933,40.731118]},"totalOffices":1.0},{"name":"Buzzmetrics","lat":40.731118,"lng":-73.991933,"oficina_principal":{"type":"Point","coordinates":[-73.991933,40.731118]},"totalOffices":1.0},{"name":"MusicGremlin","lat":37.09024,"lng":-95.712891,"oficina_principal":{"type":"Point","coordinates":[-95.712891,37.09024]},"totalOffices":1.0},{"name":"Exabre","lat":null,"lng":null,"oficina_principal":null,"totalOffices":1.0},{"name":"ReachLocal","lat":41.53155,"lng":-72.188584,"oficina_principal":{"type":"Point","coordinates":[-72.188584,41.53155]},"totalOffices":5.0},{"name":"Greystripe","lat":37.710677,"lng":-122.39323,"oficina_principal":{"type":"Point","coordinates":[-122.39323,37.710677]},"totalOffices":1.0},{"name":"Trulia","lat":37.766909,"lng":-122.406676,"oficina_principal":{"type":"Point","coordinates":[-122.406676,37.766909]},"totalOffices":1.0},{"name":"WeatherBug","lat":39.2009241,"lng":-77.2630048,"oficina_principal":{"type":"Point","coordinates":[-77.2630048,39.2009241]},"totalOffices":1.0},{"name":"Narrowstep","lat":37.09024,"lng":-95.712891,"oficina_principal":{"type":"Point","coordinates":[-95.712891,37.09024]},"totalOffices":1.0},{"name":"Bix","lat":37.09024,"lng":-95.712891,"oficina_principal":{"type":"Point","coordinates":[-95.712891,37.09024]},"totalOffices":1.0},{"name":"Burnlounge","lat":40.746953,"lng":-73.993553,"oficina_principal":{"type":"Point","coordinates":[-73.993553,40.746953]},"totalOffices":1.0},{"name":"Yeigo","lat":null,"lng":null,"oficina_principal":null,"totalOffices":1.0},{"name":"DAVE Networks","lat":33.979033,"lng":-118.423423,"oficina_principal":{"type":"Point","coordinates":[-118.423423,33.979033]},"totalOffices":2.0},{"name":"NexTag","lat":37.554595,"lng":-122.317471,"oficina_principal":{"type":"Point","coordinates":[-122.317471,37.554595]},"totalOffices":1.0},{"name":"Netblue","lat":37.09024,"lng":-95.712891,"oficina_principal":{"type":"Point","coordinates":[-95.712891,37.09024]},"totalOffices":1.0},{"name":"TubeMogul","lat":37.836957,"lng":-122.286493,"oficina_principal":{"type":"Point","coordinates":[-122.286493,37.836957]},"totalOffices":1.0},{"name":"TechTarget","lat":37.09024,"lng":-95.712891,"oficina_principal":{"type":"Point","coordinates":[-95.712891,37.09024]},"totalOffices":1.0},{"name":"Shopzilla","lat":37.09024,"lng":-95.712891,"oficina_principal":{"type":"Point","coordinates":[-95.712891,37.09024]},"totalOffices":4.0},{"name":"dpreview","lat":55.378051,"lng":-3.435973,"oficina_principal":{"type":"Point","coordinates":[-3.435973,55.378051]},"totalOffices":1.0},{"name":"Sabre","lat":32.9819881,"lng":-97.1599393,"oficina_principal":{"type":"Point","coordinates":[-97.1599393,32.9819881]},"totalOffices":1.0},{"name":"Lastminute","lat":37.09024,"lng":-95.712891,"oficina_principal":{"type":"Point","coordinates":[-95.712891,37.09024]},"totalOffices":1.0},{"name":"SpiralFrog","lat":37.09024,"lng":-95.712891,"oficina_principal":{"type":"Point","coordinates":[-95.712891,37.09024]},"totalOffices":1.0},{"name":"TripOvation","lat":37.09024,"lng":-95.712891,"oficina_principal":{"type":"Point","coordinates":[-95.712891,37.09024]},"totalOffices":1.0},{"name":"MusicNet","lat":37.09024,"lng":-95.712891,"oficina_principal":{"type":"Point","coordinates":[-95.712891,37.09024]},"totalOffices":1.0},{"name":"Cendant","lat":37.09024,"lng":-95.712891,"oficina_principal":{"type":"Point","coordinates":[-95.712891,37.09024]},"totalOffices":1.0},{"name":"Multiply","lat":26.400499,"lng":-80.097742,"oficina_principal":{"type":"Point","coordinates":[-80.097742,26.400499]},"totalOffices":2.0},{"name":"YellowPages","lat":34.155224,"lng":-118.255197,"oficina_principal":{"type":"Point","coordinates":[-118.255197,34.155224]},"totalOffices":1.0},{"name":"Vtap","lat":42.656621,"lng":-71.140538,"oficina_principal":{"type":"Point","coordinates":[-71.140538,42.656621]},"totalOffices":1.0},{"name":"Seedcamp","lat":51.5108803,"lng":-0.1418973,"oficina_principal":{"type":"Point","coordinates":[-0.1418973,51.5108803]},"totalOffices":1.0},{"name":"Sportsline","lat":37.09024,"lng":-95.712891,"oficina_principal":{"type":"Point","coordinates":[-95.712891,37.09024]},"totalOffices":1.0},{"name":"Digitas","lat":37.09024,"lng":-95.712891,"oficina_principal":{"type":"Point","coordinates":[-95.712891,37.09024]},"totalOffices":2.0},{"name":"Webshots","lat":null,"lng":null,"oficina_principal":null,"totalOffices":1.0},{"name":"LimeLife","lat":37.48413,"lng":-122.169472,"oficina_principal":{"type":"Point","coordinates":[-122.169472,37.48413]},"totalOffices":1.0},{"name":"OpenTable","lat":37.785647,"lng":-122.405265,"oficina_principal":{"type":"Point","coordinates":[-122.405265,37.785647]},"totalOffices":1.0},{"name":"Tickle","lat":37.09024,"lng":-95.712891,"oficina_principal":{"type":"Point","coordinates":[-95.712891,37.09024]},"totalOffices":1.0},{"name":"JobPilot","lat":37.09024,"lng":-95.712891,"oficina_principal":{"type":"Point","coordinates":[-95.712891,37.09024]},"totalOffices":1.0},{"name":"Espotting","lat":37.09024,"lng":-95.712891,"oficina_principal":{"type":"Point","coordinates":[-95.712891,37.09024]},"totalOffices":1.0},{"name":"MIVA","lat":40.733276,"lng":-73.9932793,"oficina_principal":{"type":"Point","coordinates":[-73.9932793,40.733276]},"totalOffices":1.0},{"name":"MocoSpace","lat":42.350274,"lng":-71.058768,"oficina_principal":{"type":"Point","coordinates":[-71.058768,42.350274]},"totalOffices":1.0},{"name":"Adknowledge","lat":39.044694,"lng":-94.597896,"oficina_principal":{"type":"Point","coordinates":[-94.597896,39.044694]},"totalOffices":9.0},{"name":"LocaModa","lat":42.358822,"lng":-71.104329,"oficina_principal":{"type":"Point","coordinates":[-71.104329,42.358822]},"totalOffices":1.0},{"name":"airG","lat":3.046111,"lng":-75.066111,"oficina_principal":{"type":"Point","coordinates":[-75.066111,3.046111]},"totalOffices":1.0},{"name":"YouBeQB","lat":47.597965,"lng":-122.151158,"oficina_principal":{"type":"Point","coordinates":[-122.151158,47.597965]},"totalOffices":1.0},{"name":"eMusic","lat":null,"lng":null,"oficina_principal":null,"totalOffices":1.0},{"name":"RampedMedia","lat":38.618874,"lng":-90.216499,"oficina_principal":{"type":"Point","coordinates":[-90.216499,38.618874]},"totalOffices":1.0},{"name":"ChannelAdvisor","lat":35.854483,"lng":-78.815635,"oficina_principal":{"type":"Point","coordinates":[-78.815635,35.854483]},"totalOffices":1.0},{"name":"Yap","lat":35.22806,"lng":-80.856178,"oficina_principal":{"type":"Point","coordinates":[-80.856178,35.22806]},"totalOffices":1.0},{"name":"Frazr","lat":37.09024,"lng":-95.712891,"oficina_principal":{"type":"Point","coordinates":[-95.712891,37.09024]},"totalOffices":1.0},{"name":"Tizra","lat":41.841713,"lng":-71.399771,"oficina_principal":{"type":"Point","coordinates":[-71.399771,41.841713]},"totalOffices":1.0},{"name":"PunchStock","lat":37.09024,"lng":-95.712891,"oficina_principal":{"type":"Point","coordinates":[-95.712891,37.09024]},"totalOffices":1.0},{"name":"GoChongo","lat":37.09024,"lng":-95.712891,"oficina_principal":{"type":"Point","coordinates":[-95.712891,37.09024]},"totalOffices":1.0},{"name":"Minglebox","lat":12.971606,"lng":77.594376,"oficina_principal":{"type":"Point","coordinates":[77.594376,12.971606]},"totalOffices":1.0},{"name":"MyZimu","lat":37.09024,"lng":-95.712891,"oficina_principal":{"type":"Point","coordinates":[-95.712891,37.09024]},"totalOffices":1.0},{"name":"TestFreaks","lat":59.3339908,"lng":18.0571198,"oficina_principal":{"type":"Point","coordinates":[18.0571198,59.3339908]},"totalOffices":1.0},{"name":"Itiva","lat":37.09024,"lng":-95.712891,"oficina_principal":{"type":"Point","coordinates":[-95.712891,37.09024]},"totalOffices":1.0},{"name":"Quattro Wireless","lat":42.3729,"lng":-71.248472,"oficina_principal":{"type":"Point","coordinates":[-71.248472,42.3729]},"totalOffices":1.0},{"name":"BlogSigs","lat":37.09024,"lng":-95.712891,"oficina_principal":{"type":"Point","coordinates":[-95.712891,37.09024]},"totalOffices":1.0},{"name":"Videojug","lat":null,"lng":null,"oficina_principal":null,"totalOffices":1.0},{"name":"Ripl","lat":47.620716,"lng":-122.347533,"oficina_principal":{"type":"Point","coordinates":[-122.347533,47.620716]},"totalOffices":1.0},{"name":"BBE","lat":40.7445343,"lng":-73.9874008,"oficina_principal":{"type":"Point","coordinates":[-73.9874008,40.7445343]},"totalOffices":1.0},{"name":"nellymoser","lat":42.417903,"lng":-71.164975,"oficina_principal":{"type":"Point","coordinates":[-71.164975,42.417903]},"totalOffices":1.0},{"name":"Tacoda","lat":40.757929,"lng":-73.985506,"oficina_principal":{"type":"Point","coordinates":[-73.985506,40.757929]},"totalOffices":1.0},{"name":"Thumbplay","lat":40.725435,"lng":-73.997395,"oficina_principal":{"type":"Point","coordinates":[-73.997395,40.725435]},"totalOffices":1.0},{"name":"Fotolog","lat":40.757929,"lng":-73.985506,"oficina_principal":{"type":"Point","coordinates":[-73.985506,40.757929]},"totalOffices":1.0},{"name":"Y2M","lat":null,"lng":null,"oficina_principal":null,"totalOffices":1.0},{"name":"Sconex","lat":37.09024,"lng":-95.712891,"oficina_principal":{"type":"Point","coordinates":[-95.712891,37.09024]},"totalOffices":1.0},{"name":"Lycos","lat":42.393662,"lng":-71.255855,"oficina_principal":{"type":"Point","coordinates":[-71.255855,42.393662]},"totalOffices":1.0},{"name":"Xfire","lat":34.0184659,"lng":-118.49863,"oficina_principal":{"type":"Point","coordinates":[-118.49863,34.0184659]},"totalOffices":1.0},{"name":"MyOfferPal","lat":37.09024,"lng":-95.712891,"oficina_principal":{"type":"Point","coordinates":[-95.712891,37.09024]},"totalOffices":1.0},{"name":"Alloy","lat":37.09024,"lng":-95.712891,"oficina_principal":{"type":"Point","coordinates":[-95.712891,37.09024]},"totalOffices":1.0},{"name":"iVillage","lat":40.757929,"lng":-73.985506,"oficina_principal":{"type":"Point","coordinates":[-73.985506,40.757929]},"totalOffices":1.0},{"name":"Mixercast","lat":37.553743,"lng":-122.300246,"oficina_principal":{"type":"Point","coordinates":[-122.300246,37.553743]},"totalOffices":1.0},{"name":"Wonga","lat":51.5192042,"lng":-0.1626103,"oficina_principal":{"type":"Point","coordinates":[-0.1626103,51.5192042]},"totalOffices":1.0},{"name":"Yadio","lat":37.09024,"lng":-95.712891,"oficina_principal":{"type":"Point","coordinates":[-95.712891,37.09024]},"totalOffices":1.0},{"name":"ITV","lat":37.09024,"lng":-95.712891,"oficina_principal":{"type":"Point","coordinates":[-95.712891,37.09024]},"totalOffices":1.0},{"name":"SnapTell","lat":37.433414,"lng":-122.128772,"oficina_principal":{"type":"Point","coordinates":[-122.128772,37.433414]},"totalOffices":1.0},{"name":"Primedia","lat":37.09024,"lng":-95.712891,"oficina_principal":{"type":"Point","coordinates":[-95.712891,37.09024]},"totalOffices":1.0},{"name":"Tradera","lat":37.09024,"lng":-95.712891,"oficina_principal":{"type":"Point","coordinates":[-95.712891,37.09024]},"totalOffices":1.0},{"name":"Marchex","lat":47.611201,"lng":-122.336825,"oficina_principal":{"type":"Point","coordinates":[-122.336825,47.611201]},"totalOffices":1.0},{"name":"Tutor","lat":40.707921,"lng":-74.004792,"oficina_principal":{"type":"Point","coordinates":[-74.004792,40.707921]},"totalOffices":1.0},{"name":"PriceGrabber","lat":37.09024,"lng":-95.712891,"oficina_principal":{"type":"Point","coordinates":[-95.712891,37.09024]},"totalOffices":1.0},{"name":"MicroPlace","lat":37.775196,"lng":-122.419204,"oficina_principal":{"type":"Point","coordinates":[-122.419204,37.775196]},"totalOffices":1.0},{"name":"EyeJot","lat":47.5999337,"lng":-122.3276962,"oficina_principal":{"type":"Point","coordinates":[-122.3276962,47.5999337]},"totalOffices":1.0},{"name":"mTraks","lat":32.901317,"lng":-117.200492,"oficina_principal":{"type":"Point","coordinates":[-117.200492,32.901317]},"totalOffices":1.0},{"name":"Spiceworks","lat":30.386601,"lng":-97.753739,"oficina_principal":{"type":"Point","coordinates":[-97.753739,30.386601]},"totalOffices":1.0},{"name":"MyHeritage","lat":32.029748,"lng":34.856173,"oficina_principal":{"type":"Point","coordinates":[34.856173,32.029748]},"totalOffices":1.0},{"name":"Contrastream","lat":43.799511,"lng":-79.348037,"oficina_principal":{"type":"Point","coordinates":[-79.348037,43.799511]},"totalOffices":1.0},{"name":"Videohybrid","lat":37.316466,"lng":-121.873881,"oficina_principal":{"type":"Point","coordinates":[-121.873881,37.316466]},"totalOffices":1.0},{"name":"Finetune","lat":null,"lng":null,"oficina_principal":null,"totalOffices":1.0},{"name":"Collagr","lat":null,"lng":null,"oficina_principal":null,"totalOffices":1.0},{"name":"CircleLending","lat":37.09024,"lng":-95.712891,"oficina_principal":{"type":"Point","coordinates":[-95.712891,37.09024]},"totalOffices":1.0},{"name":"OnForce","lat":42.47218,"lng":-71.262508,"oficina_principal":{"type":"Point","coordinates":[-71.262508,42.47218]},"totalOffices":1.0},{"name":"OMGPOP","lat":40.723384,"lng":-74.001704,"oficina_principal":{"type":"Point","coordinates":[-74.001704,40.723384]},"totalOffices":2.0},{"name":"Ooyala","lat":37.386665,"lng":-122.084171,"oficina_principal":{"type":"Point","coordinates":[-122.084171,37.386665]},"totalOffices":4.0},{"name":"Daylife","lat":40.643438,"lng":-73.886452,"oficina_principal":{"type":"Point","coordinates":[-73.886452,40.643438]},"totalOffices":1.0},{"name":"CrowdSpirit","lat":45.206889,"lng":5.659066,"oficina_principal":{"type":"Point","coordinates":[5.659066,45.206889]},"totalOffices":1.0},{"name":"SayNow","lat":37.42746,"lng":-122.143915,"oficina_principal":{"type":"Point","coordinates":[-122.143915,37.42746]},"totalOffices":1.0},{"name":"Crunchyroll","lat":37.781265,"lng":-122.393229,"oficina_principal":{"type":"Point","coordinates":[-122.393229,37.781265]},"totalOffices":1.0},{"name":"GreenBorder","lat":37.09024,"lng":-95.712891,"oficina_principal":{"type":"Point","coordinates":[-95.712891,37.09024]},"totalOffices":1.0},{"name":"CircleUp","lat":null,"lng":null,"oficina_principal":null,"totalOffices":1.0},{"name":"PixSense","lat":37.387114,"lng":-121.973228,"oficina_principal":{"type":"Point","coordinates":[-121.973228,37.387114]},"totalOffices":1.0},{"name":"ContactOffice","lat":50.796645,"lng":4.400604,"oficina_principal":{"type":"Point","coordinates":[4.400604,50.796645]},"totalOffices":1.0},{"name":"Behance","lat":40.74406,"lng":-74.004592,"oficina_principal":{"type":"Point","coordinates":[-74.004592,40.74406]},"totalOffices":1.0},{"name":"Magnify","lat":null,"lng":null,"oficina_principal":null,"totalOffices":1.0},{"name":"Yugma","lat":44.865243,"lng":-93.4094629,"oficina_principal":{"type":"Point","coordinates":[-93.4094629,44.865243]},"totalOffices":1.0},{"name":"Myndnet","lat":37.447969,"lng":-122.119417,"oficina_principal":{"type":"Point","coordinates":[-122.119417,37.447969]},"totalOffices":1.0},{"name":"Glimpse","lat":37.09024,"lng":-95.712891,"oficina_principal":{"type":"Point","coordinates":[-95.712891,37.09024]},"totalOffices":1.0},{"name":"ThemBid","lat":34.099253,"lng":-117.572967,"oficina_principal":{"type":"Point","coordinates":[-117.572967,34.099253]},"totalOffices":1.0},{"name":"hulu","lat":34.031276,"lng":-118.456806,"oficina_principal":{"type":"Point","coordinates":[-118.456806,34.031276]},"totalOffices":1.0},{"name":"OurStory","lat":37.40047,"lng":-122.072981,"oficina_principal":{"type":"Point","coordinates":[-122.072981,37.40047]},"totalOffices":1.0},{"name":"imeem","lat":37.779624,"lng":-122.391236,"oficina_principal":{"type":"Point","coordinates":[-122.391236,37.779624]},"totalOffices":1.0},{"name":"AdMob","lat":37.563585,"lng":-122.324621,"oficina_principal":{"type":"Point","coordinates":[-122.324621,37.563585]},"totalOffices":1.0},{"name":"FAROO","lat":51.5195795,"lng":-0.1065551,"oficina_principal":{"type":"Point","coordinates":[-0.1065551,51.5195795]},"totalOffices":1.0},{"name":"AgentMatch","lat":null,"lng":null,"oficina_principal":null,"totalOffices":1.0},{"name":"Parlano","lat":41.881769,"lng":-87.638752,"oficina_principal":{"type":"Point","coordinates":[-87.638752,41.881769]},"totalOffices":1.0},{"name":"MySQL","lat":37.322806,"lng":-122.030201,"oficina_principal":{"type":"Point","coordinates":[-122.030201,37.322806]},"totalOffices":1.0},{"name":"Attributor","lat":37.453687,"lng":-122.228595,"oficina_principal":{"type":"Point","coordinates":[-122.228595,37.453687]},"totalOffices":1.0},{"name":"ElephantDrive","lat":null,"lng":null,"oficina_principal":null,"totalOffices":1.0},{"name":"OrganizedWisdom","lat":40.775537,"lng":-73.981709,"oficina_principal":{"type":"Point","coordinates":[-73.981709,40.775537]},"totalOffices":1.0},{"name":"Nemedia","lat":null,"lng":null,"oficina_principal":null,"totalOffices":1.0},{"name":"4INFO","lat":null,"lng":null,"oficina_principal":null,"totalOffices":1.0},{"name":"LineUpNewYork","lat":40.753202,"lng":-73.986771,"oficina_principal":{"type":"Point","coordinates":[-73.986771,40.753202]},"totalOffices":1.0},{"name":"MediaPops","lat":47.611012,"lng":-122.333523,"oficina_principal":{"type":"Point","coordinates":[-122.333523,47.611012]},"totalOffices":1.0},{"name":"Musicshake","lat":null,"lng":null,"oficina_principal":null,"totalOffices":1.0},{"name":"BeFunky","lat":null,"lng":null,"oficina_principal":null,"totalOffices":2.0},{"name":"Trutap","lat":null,"lng":null,"oficina_principal":null,"totalOffices":1.0},{"name":"Clickz","lat":40.723703,"lng":-73.99644,"oficina_principal":{"type":"Point","coordinates":[-73.99644,40.723703]},"totalOffices":1.0},{"name":"PeekYou","lat":40.757929,"lng":-73.985506,"oficina_principal":{"type":"Point","coordinates":[-73.985506,40.757929]},"totalOffices":1.0},{"name":"Jive Software","lat":null,"lng":null,"oficina_principal":null,"totalOffices":5.0},{"name":"GotStatus","lat":30.34497,"lng":-97.770174,"oficina_principal":{"type":"Point","coordinates":[-97.770174,30.34497]},"totalOffices":1.0},{"name":"ZocDoc","lat":null,"lng":null,"oficina_principal":null,"totalOffices":1.0},{"name":"Mozy","lat":40.357978,"lng":-111.777531,"oficina_principal":{"type":"Point","coordinates":[-111.777531,40.357978]},"totalOffices":1.0},{"name":"WooMe","lat":null,"lng":null,"oficina_principal":null,"totalOffices":1.0},{"name":"Viewdle","lat":null,"lng":null,"oficina_principal":null,"totalOffices":1.0},{"name":"Mixx","lat":38.003376,"lng":-79.420926,"oficina_principal":{"type":"Point","coordinates":[-79.420926,38.003376]},"totalOffices":1.0},{"name":"TripIt","lat":37.764169,"lng":-122.402021,"oficina_principal":{"type":"Point","coordinates":[-122.402021,37.764169]},"totalOffices":1.0},{"name":"PubMatic","lat":37.446668,"lng":-122.156579,"oficina_principal":{"type":"Point","coordinates":[-122.156579,37.446668]},"totalOffices":4.0},{"name":"GENWI","lat":33.8171,"lng":-111.9035,"oficina_principal":{"type":"Point","coordinates":[-111.9035,33.8171]},"totalOffices":1.0},{"name":"Kerpoof","lat":40.048078,"lng":-105.38018,"oficina_principal":{"type":"Point","coordinates":[-105.38018,40.048078]},"totalOffices":1.0},{"name":"ITema","lat":41.345754,"lng":-72.105722,"oficina_principal":{"type":"Point","coordinates":[-72.105722,41.345754]},"totalOffices":1.0},{"name":"Sertifi","lat":null,"lng":null,"oficina_principal":null,"totalOffices":1.0},{"name":"app2you","lat":32.847521,"lng":-117.274609,"oficina_principal":{"type":"Point","coordinates":[-117.274609,32.847521]},"totalOffices":1.0},{"name":"Orgoo","lat":34.0481711,"lng":-118.4419012,"oficina_principal":{"type":"Point","coordinates":[-118.4419012,34.0481711]},"totalOffices":1.0},{"name":"HylioSoft","lat":49.1004,"lng":6.182658,"oficina_principal":{"type":"Point","coordinates":[6.182658,49.1004]},"totalOffices":1.0},{"name":"Wixi","lat":null,"lng":null,"oficina_principal":null,"totalOffices":1.0},{"name":"YourStreet","lat":37.793742,"lng":-122.421341,"oficina_principal":{"type":"Point","coordinates":[-122.421341,37.793742]},"totalOffices":1.0},{"name":"Zerofootprint","lat":43.6501051,"lng":-79.396805,"oficina_principal":{"type":"Point","coordinates":[-79.396805,43.6501051]},"totalOffices":1.0},{"name":"Vidoop","lat":45.5241278,"lng":-122.675448,"oficina_principal":{"type":"Point","coordinates":[-122.675448,45.5241278]},"totalOffices":1.0},{"name":"PrepMe","lat":41.892774,"lng":-87.621982,"oficina_principal":{"type":"Point","coordinates":[-87.621982,41.892774]},"totalOffices":1.0},{"name":"GlobalMotion","lat":37.445714,"lng":-122.161247,"oficina_principal":{"type":"Point","coordinates":[-122.161247,37.445714]},"totalOffices":1.0},{"name":"Ceedo Technologies","lat":null,"lng":null,"oficina_principal":null,"totalOffices":1.0},{"name":"SmartHippo","lat":45.506643,"lng":-73.566634,"oficina_principal":{"type":"Point","coordinates":[-73.566634,45.506643]},"totalOffices":1.0},{"name":"Snoozester","lat":39.052614,"lng":-77.123153,"oficina_principal":{"type":"Point","coordinates":[-77.123153,39.052614]},"totalOffices":1.0},{"name":"FlowPlay","lat":47.6015315,"lng":-122.335943,"oficina_principal":{"type":"Point","coordinates":[-122.335943,47.6015315]},"totalOffices":1.0},{"name":"Aviary","lat":null,"lng":null,"oficina_principal":null,"totalOffices":1.0},{"name":"IPartee","lat":56.130366,"lng":-106.346771,"oficina_principal":{"type":"Point","coordinates":[-106.346771,56.130366]},"totalOffices":1.0},{"name":"headr","lat":52.5013449,"lng":13.4109071,"oficina_principal":{"type":"Point","coordinates":[13.4109071,52.5013449]},"totalOffices":2.0},{"name":"in2apps","lat":null,"lng":null,"oficina_principal":null,"totalOffices":1.0},{"name":"IMSafer","lat":30.182107,"lng":-95.536,"oficina_principal":{"type":"Point","coordinates":[-95.536,30.182107]},"totalOffices":1.0},{"name":"Social Project","lat":34.01052,"lng":-118.495981,"oficina_principal":{"type":"Point","coordinates":[-118.495981,34.01052]},"totalOffices":1.0},{"name":"Feedjit","lat":47.585114,"lng":-122.084356,"oficina_principal":{"type":"Point","coordinates":[-122.084356,47.585114]},"totalOffices":1.0},{"name":"RotoHog","lat":33.959799,"lng":-118.343938,"oficina_principal":{"type":"Point","coordinates":[-118.343938,33.959799]},"totalOffices":1.0},{"name":"Balihoo","lat":43.61295,"lng":-116.205637,"oficina_principal":{"type":"Point","coordinates":[-116.205637,43.61295]},"totalOffices":1.0},{"name":"Trivop","lat":48.8558532,"lng":2.3365754,"oficina_principal":{"type":"Point","coordinates":[2.3365754,48.8558532]},"totalOffices":1.0},{"name":"Viewpoints","lat":41.890376,"lng":-87.63406,"oficina_principal":{"type":"Point","coordinates":[-87.63406,41.890376]},"totalOffices":1.0},{"name":"RatePoint","lat":42.296111,"lng":-71.238524,"oficina_principal":{"type":"Point","coordinates":[-71.238524,42.296111]},"totalOffices":1.0},{"name":"Smartsheet","lat":47.617842,"lng":-122.20052,"oficina_principal":{"type":"Point","coordinates":[-122.20052,47.617842]},"totalOffices":1.0},{"name":"Iggli","lat":40.010492,"lng":-105.276843,"oficina_principal":{"type":"Point","coordinates":[-105.276843,40.010492]},"totalOffices":1.0},{"name":"OneRiot","lat":40.01621,"lng":-105.28131,"oficina_principal":{"type":"Point","coordinates":[-105.28131,40.01621]},"totalOffices":1.0},{"name":"ThisNext","lat":34.01533,"lng":-118.493592,"oficina_principal":{"type":"Point","coordinates":[-118.493592,34.01533]},"totalOffices":1.0},{"name":"Avvo","lat":47.6104101,"lng":-122.3396627,"oficina_principal":{"type":"Point","coordinates":[-122.3396627,47.6104101]},"totalOffices":1.0},{"name":"Tumri","lat":37.09024,"lng":-95.712891,"oficina_principal":{"type":"Point","coordinates":[-95.712891,37.09024]},"totalOffices":1.0},{"name":"Twango","lat":47.672229,"lng":-122.115633,"oficina_principal":{"type":"Point","coordinates":[-122.115633,47.672229]},"totalOffices":1.0},{"name":"Nokia","lat":60.170514,"lng":24.827224,"oficina_principal":{"type":"Point","coordinates":[24.827224,60.170514]},"totalOffices":1.0},{"name":"Auctomatic","lat":37.786175,"lng":-122.389676,"oficina_principal":{"type":"Point","coordinates":[-122.389676,37.786175]},"totalOffices":1.0},{"name":"ChessPark","lat":43.67084,"lng":-83.913153,"oficina_principal":{"type":"Point","coordinates":[-83.913153,43.67084]},"totalOffices":1.0},{"name":"MuseStorm","lat":37.368594,"lng":-122.034021,"oficina_principal":{"type":"Point","coordinates":[-122.034021,37.368594]},"totalOffices":1.0},{"name":"UpDown","lat":42.375392,"lng":-71.118487,"oficina_principal":{"type":"Point","coordinates":[-71.118487,42.375392]},"totalOffices":1.0},{"name":"Clickable","lat":40.7413559,"lng":-73.9912208,"oficina_principal":{"type":"Point","coordinates":[-73.9912208,40.7413559]},"totalOffices":2.0},{"name":"Eons","lat":42.375219,"lng":-71.056101,"oficina_principal":{"type":"Point","coordinates":[-71.056101,42.375219]},"totalOffices":1.0},{"name":"Dopplr","lat":51.523789,"lng":-0.087432,"oficina_principal":{"type":"Point","coordinates":[-0.087432,51.523789]},"totalOffices":1.0},{"name":"LinkShare","lat":35.6158956,"lng":139.7492374,"oficina_principal":{"type":"Point","coordinates":[139.7492374,35.6158956]},"totalOffices":3.0},{"name":"Rakuten","lat":null,"lng":null,"oficina_principal":null,"totalOffices":1.0},{"name":"Kaboose","lat":37.09024,"lng":-95.712891,"oficina_principal":{"type":"Point","coordinates":[-95.712891,37.09024]},"totalOffices":1.0},{"name":"ValueClick","lat":37.09024,"lng":-95.712891,"oficina_principal":{"type":"Point","coordinates":[-95.712891,37.09024]},"totalOffices":2.0},{"name":"Fastclick","lat":37.09024,"lng":-95.712891,"oficina_principal":{"type":"Point","coordinates":[-95.712891,37.09024]},"totalOffices":1.0},{"name":"WiderThan","lat":37.09024,"lng":-95.712891,"oficina_principal":{"type":"Point","coordinates":[-95.712891,37.09024]},"totalOffices":1.0},{"name":"Loudeye","lat":37.09024,"lng":-95.712891,"oficina_principal":{"type":"Point","coordinates":[-95.712891,37.09024]},"totalOffices":1.0},{"name":"m-Qube","lat":37.09024,"lng":-95.712891,"oficina_principal":{"type":"Point","coordinates":[-95.712891,37.09024]},"totalOffices":1.0},{"name":"Cybird","lat":null,"lng":null,"oficina_principal":null,"totalOffices":1.0},{"name":"Airborne Mobile","lat":45.513684,"lng":-73.572133,"oficina_principal":{"type":"Point","coordinates":[-73.572133,45.513684]},"totalOffices":1.0},{"name":"LightSurf","lat":37.09024,"lng":-95.712891,"oficina_principal":{"type":"Point","coordinates":[-95.712891,37.09024]},"totalOffices":1.0},{"name":"For-side","lat":37.09024,"lng":-95.712891,"oficina_principal":{"type":"Point","coordinates":[-95.712891,37.09024]},"totalOffices":1.0},{"name":"Cuil","lat":37.451124,"lng":-122.166264,"oficina_principal":{"type":"Point","coordinates":[-122.166264,37.451124]},"totalOffices":1.0},{"name":"Webjam","lat":51.519819,"lng":-0.136174,"oficina_principal":{"type":"Point","coordinates":[-0.136174,51.519819]},"totalOffices":1.0},{"name":"Extravigator","lat":null,"lng":null,"oficina_principal":null,"totalOffices":1.0},{"name":"Boomi","lat":40.063476,"lng":-75.457492,"oficina_principal":{"type":"Point","coordinates":[-75.457492,40.063476]},"totalOffices":2.0},{"name":"mig33","lat":37.580304,"lng":-122.343679,"oficina_principal":{"type":"Point","coordinates":[-122.343679,37.580304]},"totalOffices":1.0},{"name":"Animoto","lat":40.72948,"lng":-74.000195,"oficina_principal":{"type":"Point","coordinates":[-74.000195,40.72948]},"totalOffices":2.0},{"name":"GamerDNA","lat":42.375392,"lng":-71.118487,"oficina_principal":{"type":"Point","coordinates":[-71.118487,42.375392]},"totalOffices":1.0},{"name":"Swamble","lat":36.076705,"lng":-115.089514,"oficina_principal":{"type":"Point","coordinates":[-115.089514,36.076705]},"totalOffices":1.0},{"name":"SpeedDate","lat":37.557637,"lng":-122.285714,"oficina_principal":{"type":"Point","coordinates":[-122.285714,37.557637]},"totalOffices":1.0},{"name":"Data360","lat":37.799549,"lng":-122.306571,"oficina_principal":{"type":"Point","coordinates":[-122.306571,37.799549]},"totalOffices":1.0},{"name":"Houseglue","lat":37.222604,"lng":-121.983814,"oficina_principal":{"type":"Point","coordinates":[-121.983814,37.222604]},"totalOffices":1.0},{"name":"Jawbone","lat":37.768708,"lng":-122.402866,"oficina_principal":{"type":"Point","coordinates":[-122.402866,37.768708]},"totalOffices":1.0},{"name":"Pakt","lat":33.945553,"lng":-118.441219,"oficina_principal":{"type":"Point","coordinates":[-118.441219,33.945553]},"totalOffices":1.0},{"name":"mEgo","lat":34.064491,"lng":-118.42749,"oficina_principal":{"type":"Point","coordinates":[-118.42749,34.064491]},"totalOffices":1.0},{"name":"MetaLink","lat":37.09024,"lng":-95.712891,"oficina_principal":{"type":"Point","coordinates":[-95.712891,37.09024]},"totalOffices":1.0},{"name":"Realius","lat":37.887864,"lng":-122.26999,"oficina_principal":{"type":"Point","coordinates":[-122.26999,37.887864]},"totalOffices":1.0},{"name":"Metaplace","lat":33.020832,"lng":-117.077311,"oficina_principal":{"type":"Point","coordinates":[-117.077311,33.020832]},"totalOffices":1.0},{"name":"Xobni","lat":37.789634,"lng":-122.404052,"oficina_principal":{"type":"Point","coordinates":[-122.404052,37.789634]},"totalOffices":1.0},{"name":"CafeScribe","lat":null,"lng":null,"oficina_principal":null,"totalOffices":1.0},{"name":"StoryBlender","lat":null,"lng":null,"oficina_principal":null,"totalOffices":1.0},{"name":"Spoke","lat":37.559287,"lng":-122.302262,"oficina_principal":{"type":"Point","coordinates":[-122.302262,37.559287]},"totalOffices":1.0},{"name":"BroadClip","lat":37.661237,"lng":-121.803572,"oficina_principal":{"type":"Point","coordinates":[-121.803572,37.661237]},"totalOffices":1.0},{"name":"Fixya","lat":37.566879,"lng":-122.323895,"oficina_principal":{"type":"Point","coordinates":[-122.323895,37.566879]},"totalOffices":1.0},{"name":"Myxer","lat":null,"lng":null,"oficina_principal":null,"totalOffices":2.0},{"name":"Tripwiser","lat":37.384239,"lng":-122.012475,"oficina_principal":{"type":"Point","coordinates":[-122.012475,37.384239]},"totalOffices":1.0},{"name":"Wirenode","lat":50.055049,"lng":14.489674,"oficina_principal":{"type":"Point","coordinates":[14.489674,50.055049]},"totalOffices":1.0},{"name":"Mozilla","lat":37.418491,"lng":-122.08744,"oficina_principal":{"type":"Point","coordinates":[-122.08744,37.418491]},"totalOffices":1.0},{"name":"Syntraxis","lat":32.860831,"lng":-96.9403,"oficina_principal":{"type":"Point","coordinates":[-96.9403,32.860831]},"totalOffices":1.0},{"name":"BrightQube","lat":33.09568,"lng":-117.244034,"oficina_principal":{"type":"Point","coordinates":[-117.244034,33.09568]},"totalOffices":1.0},{"name":"BuzzDash","lat":33.977854,"lng":-118.445271,"oficina_principal":{"type":"Point","coordinates":[-118.445271,33.977854]},"totalOffices":1.0},{"name":"BigSwerve","lat":null,"lng":null,"oficina_principal":null,"totalOffices":1.0},{"name":"Styky","lat":39.956259,"lng":-75.194657,"oficina_principal":{"type":"Point","coordinates":[-75.194657,39.956259]},"totalOffices":1.0},{"name":"Goojet","lat":null,"lng":null,"oficina_principal":null,"totalOffices":2.0},{"name":"Empressr","lat":40.740337,"lng":-73.993127,"oficina_principal":{"type":"Point","coordinates":[-73.993127,40.740337]},"totalOffices":1.0},{"name":"GroupSwim","lat":37.779558,"lng":-122.393041,"oficina_principal":{"type":"Point","coordinates":[-122.393041,37.779558]},"totalOffices":1.0},{"name":"Diigo","lat":39.530368,"lng":-119.81439,"oficina_principal":{"type":"Point","coordinates":[-119.81439,39.530368]},"totalOffices":1.0},{"name":"EkkoTV","lat":37.369195,"lng":-122.036849,"oficina_principal":{"type":"Point","coordinates":[-122.036849,37.369195]},"totalOffices":1.0},{"name":"Ponoko","lat":37.8136086,"lng":-122.2966496,"oficina_principal":{"type":"Point","coordinates":[-122.2966496,37.8136086]},"totalOffices":2.0},{"name":"York","lat":37.09024,"lng":-95.712891,"oficina_principal":{"type":"Point","coordinates":[-95.712891,37.09024]},"totalOffices":1.0},{"name":"Kaltura","lat":null,"lng":null,"oficina_principal":null,"totalOffices":1.0},{"name":"Notemarks","lat":39.281734,"lng":-76.581864,"oficina_principal":{"type":"Point","coordinates":[-76.581864,39.281734]},"totalOffices":1.0},{"name":"Jiglu","lat":51.54236,"lng":-0.149522,"oficina_principal":{"type":"Point","coordinates":[-0.149522,51.54236]},"totalOffices":1.0},{"name":"Sermo","lat":42.364367,"lng":-71.078978,"oficina_principal":{"type":"Point","coordinates":[-71.078978,42.364367]},"totalOffices":1.0},{"name":"Type-Any-Circle-Of-Six","lat":-37.797384,"lng":175.2604,"oficina_principal":{"type":"Point","coordinates":[175.2604,-37.797384]},"totalOffices":1.0},{"name":"SuTree","lat":32.0554,"lng":34.7595,"oficina_principal":{"type":"Point","coordinates":[34.7595,32.0554]},"totalOffices":1.0},{"name":"mPortico","lat":null,"lng":null,"oficina_principal":null,"totalOffices":1.0},{"name":"Worklight","lat":40.756799,"lng":-73.976348,"oficina_principal":{"type":"Point","coordinates":[-73.976348,40.756799]},"totalOffices":1.0},{"name":"itsmylife","lat":28.074742,"lng":-80.632606,"oficina_principal":{"type":"Point","coordinates":[-80.632606,28.074742]},"totalOffices":1.0},{"name":"Stixy","lat":37.904468,"lng":-122.542491,"oficina_principal":{"type":"Point","coordinates":[-122.542491,37.904468]},"totalOffices":1.0},{"name":"ENURGI","lat":null,"lng":null,"oficina_principal":null,"totalOffices":1.0},{"name":"Dopetracks","lat":34.210785,"lng":-118.474261,"oficina_principal":{"type":"Point","coordinates":[-118.474261,34.210785]},"totalOffices":1.0},{"name":"Mobovivo","lat":null,"lng":null,"oficina_principal":null,"totalOffices":1.0},{"name":"RingCentral","lat":37.560155,"lng":-122.285588,"oficina_principal":{"type":"Point","coordinates":[-122.285588,37.560155]},"totalOffices":1.0},{"name":"SueEasy","lat":37.401355,"lng":-122.104099,"oficina_principal":{"type":"Point","coordinates":[-122.104099,37.401355]},"totalOffices":1.0},{"name":"Zillow","lat":47.6011125,"lng":-122.3293984,"oficina_principal":{"type":"Point","coordinates":[-122.3293984,47.6011125]},"totalOffices":1.0},{"name":"Moz","lat":47.620716,"lng":-122.347533,"oficina_principal":{"type":"Point","coordinates":[-122.347533,47.620716]},"totalOffices":1.0},{"name":"MatchMine","lat":42.304545,"lng":-71.220187,"oficina_principal":{"type":"Point","coordinates":[-71.220187,42.304545]},"totalOffices":1.0},{"name":"Mimeo","lat":40.745216,"lng":-73.982807,"oficina_principal":{"type":"Point","coordinates":[-73.982807,40.745216]},"totalOffices":1.0},{"name":"EMC","lat":42.196083,"lng":-71.540875,"oficina_principal":{"type":"Point","coordinates":[-71.540875,42.196083]},"totalOffices":1.0},{"name":"Vestopia","lat":37.792262,"lng":-122.403486,"oficina_principal":{"type":"Point","coordinates":[-122.403486,37.792262]},"totalOffices":1.0},{"name":"Mobivox","lat":45.500277,"lng":-73.560084,"oficina_principal":{"type":"Point","coordinates":[-73.560084,45.500277]},"totalOffices":1.0},{"name":"3Jam","lat":37.765125,"lng":-122.4044034,"oficina_principal":{"type":"Point","coordinates":[-122.4044034,37.765125]},"totalOffices":1.0},{"name":"PlaySpan","lat":37.396312,"lng":-121.961396,"oficina_principal":{"type":"Point","coordinates":[-121.961396,37.396312]},"totalOffices":2.0},{"name":"DocuSign","lat":47.603015,"lng":-122.335668,"oficina_principal":{"type":"Point","coordinates":[-122.335668,47.603015]},"totalOffices":1.0},{"name":"Grouply","lat":37.502742,"lng":-122.211281,"oficina_principal":{"type":"Point","coordinates":[-122.211281,37.502742]},"totalOffices":1.0},{"name":"PlanHQ","lat":-41.28648,"lng":174.776217,"oficina_principal":{"type":"Point","coordinates":[174.776217,-41.28648]},"totalOffices":1.0},{"name":"Graspr","lat":37.384919,"lng":-122.053175,"oficina_principal":{"type":"Point","coordinates":[-122.053175,37.384919]},"totalOffices":1.0},{"name":"Zannel","lat":37.775196,"lng":-122.419204,"oficina_principal":{"type":"Point","coordinates":[-122.419204,37.775196]},"totalOffices":1.0},{"name":"EchoStar","lat":37.09024,"lng":-95.712891,"oficina_principal":{"type":"Point","coordinates":[-95.712891,37.09024]},"totalOffices":1.0},{"name":"eGenerations","lat":null,"lng":null,"oficina_principal":null,"totalOffices":1.0},{"name":"wunderloop","lat":null,"lng":null,"oficina_principal":null,"totalOffices":1.0},{"name":"HereOrThere","lat":55.378051,"lng":-3.435973,"oficina_principal":{"type":"Point","coordinates":[-3.435973,55.378051]},"totalOffices":1.0},{"name":"Zimbra","lat":37.557637,"lng":-122.285714,"oficina_principal":{"type":"Point","coordinates":[-122.285714,37.557637]},"totalOffices":1.0},{"name":"buddystumbler","lat":null,"lng":null,"oficina_principal":null,"totalOffices":1.0},{"name":"FriendFeed","lat":37.39248,"lng":-122.072612,"oficina_principal":{"type":"Point","coordinates":[-122.072612,37.39248]},"totalOffices":1.0},{"name":"Wikinvest","lat":37.775196,"lng":-122.419204,"oficina_principal":{"type":"Point","coordinates":[-122.419204,37.775196]},"totalOffices":1.0},{"name":"Tioti","lat":47.733603,"lng":-122.355579,"oficina_principal":{"type":"Point","coordinates":[-122.355579,47.733603]},"totalOffices":2.0},{"name":"Youlicit","lat":null,"lng":null,"oficina_principal":null,"totalOffices":1.0},{"name":"Rupture","lat":37.783898,"lng":-122.395234,"oficina_principal":{"type":"Point","coordinates":[-122.395234,37.783898]},"totalOffices":1.0},{"name":"Babylon","lat":37.09024,"lng":-95.712891,"oficina_principal":{"type":"Point","coordinates":[-95.712891,37.09024]},"totalOffices":1.0},{"name":"LingoZ","lat":31.046051,"lng":34.851612,"oficina_principal":{"type":"Point","coordinates":[34.851612,31.046051]},"totalOffices":1.0},{"name":"Gazelle","lat":42.354022,"lng":-71.140762,"oficina_principal":{"type":"Point","coordinates":[-71.140762,42.354022]},"totalOffices":1.0},{"name":"FlexiScale","lat":55.378051,"lng":-3.435973,"oficina_principal":{"type":"Point","coordinates":[-3.435973,55.378051]},"totalOffices":1.0},{"name":"earthmine","lat":37.862209,"lng":-122.298168,"oficina_principal":{"type":"Point","coordinates":[-122.298168,37.862209]},"totalOffices":1.0},{"name":"Fon","lat":40.530724,"lng":-3.632687,"oficina_principal":{"type":"Point","coordinates":[-3.632687,40.530724]},"totalOffices":1.0},{"name":"JibJab","lat":34.011335,"lng":-118.468458,"oficina_principal":{"type":"Point","coordinates":[-118.468458,34.011335]},"totalOffices":1.0},{"name":"Mixaloo","lat":41.705555,"lng":-73.938638,"oficina_principal":{"type":"Point","coordinates":[-73.938638,41.705555]},"totalOffices":1.0},{"name":"Zipidee","lat":37.09024,"lng":-95.712891,"oficina_principal":{"type":"Point","coordinates":[-95.712891,37.09024]},"totalOffices":1.0},{"name":"zSlide","lat":null,"lng":null,"oficina_principal":null,"totalOffices":1.0},{"name":"LocoGopher","lat":45.3085,"lng":-122.77941,"oficina_principal":{"type":"Point","coordinates":[-122.77941,45.3085]},"totalOffices":1.0},{"name":"CityTherapy","lat":null,"lng":null,"oficina_principal":null,"totalOffices":1.0},{"name":"MSNBC","lat":37.09024,"lng":-95.712891,"oficina_principal":{"type":"Point","coordinates":[-95.712891,37.09024]},"totalOffices":1.0},{"name":"Testuff","lat":null,"lng":null,"oficina_principal":null,"totalOffices":1.0},{"name":"Zolve","lat":28.208654,"lng":-82.193515,"oficina_principal":{"type":"Point","coordinates":[-82.193515,28.208654]},"totalOffices":1.0},{"name":"RecipeMatcher","lat":32.856744,"lng":-117.20717,"oficina_principal":{"type":"Point","coordinates":[-117.20717,32.856744]},"totalOffices":1.0},{"name":"Whiskey Media","lat":37.856331,"lng":-122.495222,"oficina_principal":{"type":"Point","coordinates":[-122.495222,37.856331]},"totalOffices":1.0},{"name":"VoodooVox","lat":null,"lng":null,"oficina_principal":null,"totalOffices":1.0},{"name":"alluc","lat":53.707739,"lng":10.023246,"oficina_principal":{"type":"Point","coordinates":[10.023246,53.707739]},"totalOffices":1.0},{"name":"CondoDomain","lat":42.349164,"lng":-71.049346,"oficina_principal":{"type":"Point","coordinates":[-71.049346,42.349164]},"totalOffices":2.0},{"name":"SnapLayout","lat":37.775196,"lng":-122.419204,"oficina_principal":{"type":"Point","coordinates":[-122.419204,37.775196]},"totalOffices":1.0},{"name":"Confabb","lat":37.408826,"lng":-122.29522,"oficina_principal":{"type":"Point","coordinates":[-122.29522,37.408826]},"totalOffices":1.0},{"name":"RayV","lat":40.781159,"lng":-73.978332,"oficina_principal":{"type":"Point","coordinates":[-73.978332,40.781159]},"totalOffices":1.0},{"name":"Uptake","lat":37.443058,"lng":-122.161674,"oficina_principal":{"type":"Point","coordinates":[-122.161674,37.443058]},"totalOffices":1.0},{"name":"FanIQ","lat":37.09024,"lng":-95.712891,"oficina_principal":{"type":"Point","coordinates":[-95.712891,37.09024]},"totalOffices":1.0},{"name":"Polyvore","lat":37.386175,"lng":-122.083487,"oficina_principal":{"type":"Point","coordinates":[-122.083487,37.386175]},"totalOffices":1.0},{"name":"Dotspotter","lat":37.09024,"lng":-95.712891,"oficina_principal":{"type":"Point","coordinates":[-95.712891,37.09024]},"totalOffices":1.0},{"name":"DocSyncer","lat":37.09024,"lng":-95.712891,"oficina_principal":{"type":"Point","coordinates":[-95.712891,37.09024]},"totalOffices":1.0},{"name":"23andMe","lat":37.09024,"lng":-95.712891,"oficina_principal":{"type":"Point","coordinates":[-95.712891,37.09024]},"totalOffices":1.0},{"name":"YuMe","lat":37.476479,"lng":-122.221717,"oficina_principal":{"type":"Point","coordinates":[-122.221717,37.476479]},"totalOffices":1.0},{"name":"Woophy","lat":51.9562996,"lng":4.5188631,"oficina_principal":{"type":"Point","coordinates":[4.5188631,51.9562996]},"totalOffices":1.0},{"name":"Genentech","lat":37.09024,"lng":-95.712891,"oficina_principal":{"type":"Point","coordinates":[-95.712891,37.09024]},"totalOffices":1.0},{"name":"AdReady","lat":47.649027,"lng":-122.346299,"oficina_principal":{"type":"Point","coordinates":[-122.346299,47.649027]},"totalOffices":1.0},{"name":"Treemo Labs","lat":47.620716,"lng":-122.347533,"oficina_principal":{"type":"Point","coordinates":[-122.347533,47.620716]},"totalOffices":1.0},{"name":"Eloqua","lat":38.9132821,"lng":-77.2279465,"oficina_principal":{"type":"Point","coordinates":[-77.2279465,38.9132821]},"totalOffices":2.0},{"name":"MyFamily","lat":47.617411,"lng":-122.191988,"oficina_principal":{"type":"Point","coordinates":[-122.191988,47.617411]},"totalOffices":1.0},{"name":"Blurb","lat":37.792968,"lng":-122.40414,"oficina_principal":{"type":"Point","coordinates":[-122.40414,37.792968]},"totalOffices":1.0},{"name":"myZenPlanet","lat":null,"lng":null,"oficina_principal":null,"totalOffices":1.0},{"name":"The Climate Corporation","lat":37.782809,"lng":-122.394354,"oficina_principal":{"type":"Point","coordinates":[-122.394354,37.782809]},"totalOffices":2.0},{"name":"Automattic","lat":37.744274,"lng":-122.421344,"oficina_principal":{"type":"Point","coordinates":[-122.421344,37.744274]},"totalOffices":1.0},{"name":"Platial","lat":45.523104,"lng":-122.670132,"oficina_principal":{"type":"Point","coordinates":[-122.670132,45.523104]},"totalOffices":1.0},{"name":"Tabblo","lat":42.35888,"lng":-71.05682,"oficina_principal":{"type":"Point","coordinates":[-71.05682,42.35888]},"totalOffices":1.0},{"name":"edocr","lat":null,"lng":null,"oficina_principal":null,"totalOffices":1.0},{"name":"Tumblr","lat":40.743808,"lng":-73.983626,"oficina_principal":{"type":"Point","coordinates":[-73.983626,40.743808]},"totalOffices":1.0},{"name":"Davidville","lat":40.743808,"lng":-73.983626,"oficina_principal":{"type":"Point","coordinates":[-73.983626,40.743808]},"totalOffices":1.0},{"name":"Radar Networks","lat":37.7753,"lng":-122.398058,"oficina_principal":{"type":"Point","coordinates":[-122.398058,37.7753]},"totalOffices":1.0},{"name":"Dash","lat":37.401495,"lng":-122.031855,"oficina_principal":{"type":"Point","coordinates":[-122.031855,37.401495]},"totalOffices":1.0},{"name":"Picnik","lat":47.610571,"lng":-122.341769,"oficina_principal":{"type":"Point","coordinates":[-122.341769,47.610571]},"totalOffices":1.0},